[
  {
    "id": 1,
    "pid": 0,
    "name": "广东省",
    "level": 1,
    "adcode": "440000",
    "lng": "113.280637",
    "lat": "23.125178"
  },
  {
    "id": 2,
    "pid": 1,
    "name": "汕头市",
    "level": 2,
    "adcode": "440500",
    "lng": "116.708463",
    "lat": "23.37102"
  },
  {
    "id": 3,
    "pid": 2,
    "name": "南澳县",
    "level": 3,
    "adcode": "440523",
    "lng": "117.027105",
    "lat": "23.419562"
  },
  {
    "id": 4,
    "pid": 2,
    "name": "澄海区",
    "level": 3,
    "adcode": "440515",
    "lng": "116.76336",
    "lat": "23.46844"
  },
  {
    "id": 5,
    "pid": 2,
    "name": "濠江区",
    "level": 3,
    "adcode": "440512",
    "lng": "116.729528",
    "lat": "23.279345"
  },
  {
    "id": 6,
    "pid": 2,
    "name": "潮阳区",
    "level": 3,
    "adcode": "440513",
    "lng": "116.602602",
    "lat": "23.262336"
  },
  {
    "id": 7,
    "pid": 2,
    "name": "潮南区",
    "level": 3,
    "adcode": "440514",
    "lng": "116.423607",
    "lat": "23.249798"
  },
  {
    "id": 8,
    "pid": 2,
    "name": "龙湖区",
    "level": 3,
    "adcode": "440507",
    "lng": "116.732015",
    "lat": "23.373754"
  },
  {
    "id": 9,
    "pid": 2,
    "name": "金平区",
    "level": 3,
    "adcode": "440511",
    "lng": "116.703583",
    "lat": "23.367071"
  },
  {
    "id": 10,
    "pid": 1,
    "name": "佛山市",
    "level": 2,
    "adcode": "440600",
    "lng": "113.122717",
    "lat": "23.028762"
  },
  {
    "id": 11,
    "pid": 10,
    "name": "三水区",
    "level": 3,
    "adcode": "440607",
    "lng": "112.899414",
    "lat": "23.16504"
  },
  {
    "id": 12,
    "pid": 10,
    "name": "高明区",
    "level": 3,
    "adcode": "440608",
    "lng": "112.882123",
    "lat": "22.893855"
  },
  {
    "id": 13,
    "pid": 10,
    "name": "顺德区",
    "level": 3,
    "adcode": "440606",
    "lng": "113.281826",
    "lat": "22.75851"
  },
  {
    "id": 14,
    "pid": 10,
    "name": "禅城区",
    "level": 3,
    "adcode": "440604",
    "lng": "113.112414",
    "lat": "23.019643"
  },
  {
    "id": 15,
    "pid": 10,
    "name": "南海区",
    "level": 3,
    "adcode": "440605",
    "lng": "113.145577",
    "lat": "23.031562"
  },
  {
    "id": 16,
    "pid": 1,
    "name": "珠海市",
    "level": 2,
    "adcode": "440400",
    "lng": "113.553986",
    "lat": "22.224979"
  },
  {
    "id": 17,
    "pid": 16,
    "name": "香洲区",
    "level": 3,
    "adcode": "440402",
    "lng": "113.55027",
    "lat": "22.271249"
  },
  {
    "id": 18,
    "pid": 16,
    "name": "斗门区",
    "level": 3,
    "adcode": "440403",
    "lng": "113.297739",
    "lat": "22.209117"
  },
  {
    "id": 19,
    "pid": 16,
    "name": "金湾区",
    "level": 3,
    "adcode": "440404",
    "lng": "113.345071",
    "lat": "22.139122"
  },
  {
    "id": 20,
    "pid": 16,
    "name": "澳门大学横琴校区(由澳门管辖)",
    "level": 3,
    "adcode": "440499",
    "lng": "",
    "lat": ""
  },
  {
    "id": 21,
    "pid": 1,
    "name": "江门市",
    "level": 2,
    "adcode": "440700",
    "lng": "113.094942",
    "lat": "22.590431"
  },
  {
    "id": 22,
    "pid": 21,
    "name": "鹤山市",
    "level": 3,
    "adcode": "440784",
    "lng": "112.961795",
    "lat": "22.768104"
  },
  {
    "id": 23,
    "pid": 21,
    "name": "江海区",
    "level": 3,
    "adcode": "440704",
    "lng": "113.120601",
    "lat": "22.572211"
  },
  {
    "id": 24,
    "pid": 21,
    "name": "开平市",
    "level": 3,
    "adcode": "440783",
    "lng": "112.692262",
    "lat": "22.366286"
  },
  {
    "id": 25,
    "pid": 21,
    "name": "台山市",
    "level": 3,
    "adcode": "440781",
    "lng": "112.793414",
    "lat": "22.250713"
  },
  {
    "id": 26,
    "pid": 21,
    "name": "恩平市",
    "level": 3,
    "adcode": "440785",
    "lng": "112.314051",
    "lat": "22.182956"
  },
  {
    "id": 27,
    "pid": 21,
    "name": "新会区",
    "level": 3,
    "adcode": "440705",
    "lng": "113.038584",
    "lat": "22.520247"
  },
  {
    "id": 28,
    "pid": 21,
    "name": "蓬江区",
    "level": 3,
    "adcode": "440703",
    "lng": "113.07859",
    "lat": "22.59677"
  },
  {
    "id": 29,
    "pid": 1,
    "name": "湛江市",
    "level": 2,
    "adcode": "440800",
    "lng": "110.364977",
    "lat": "21.274898"
  },
  {
    "id": 30,
    "pid": 29,
    "name": "吴川市",
    "level": 3,
    "adcode": "440883",
    "lng": "110.780508",
    "lat": "21.428453"
  },
  {
    "id": 31,
    "pid": 29,
    "name": "廉江市",
    "level": 3,
    "adcode": "440881",
    "lng": "110.284961",
    "lat": "21.611281"
  },
  {
    "id": 32,
    "pid": 29,
    "name": "雷州市",
    "level": 3,
    "adcode": "440882",
    "lng": "110.088275",
    "lat": "20.908523"
  },
  {
    "id": 33,
    "pid": 29,
    "name": "徐闻县",
    "level": 3,
    "adcode": "440825",
    "lng": "110.175718",
    "lat": "20.326083"
  },
  {
    "id": 34,
    "pid": 29,
    "name": "霞山区",
    "level": 3,
    "adcode": "440803",
    "lng": "110.406382",
    "lat": "21.194229"
  },
  {
    "id": 35,
    "pid": 29,
    "name": "麻章区",
    "level": 3,
    "adcode": "440811",
    "lng": "110.329167",
    "lat": "21.265997"
  },
  {
    "id": 36,
    "pid": 29,
    "name": "坡头区",
    "level": 3,
    "adcode": "440804",
    "lng": "110.455632",
    "lat": "21.24441"
  },
  {
    "id": 37,
    "pid": 29,
    "name": "赤坎区",
    "level": 3,
    "adcode": "440802",
    "lng": "110.361634",
    "lat": "21.273365"
  },
  {
    "id": 38,
    "pid": 29,
    "name": "遂溪县",
    "level": 3,
    "adcode": "440823",
    "lng": "110.255321",
    "lat": "21.376915"
  },
  {
    "id": 39,
    "pid": 1,
    "name": "惠州市",
    "level": 2,
    "adcode": "441300",
    "lng": "114.412599",
    "lat": "23.079404"
  },
  {
    "id": 40,
    "pid": 39,
    "name": "龙门县",
    "level": 3,
    "adcode": "441324",
    "lng": "114.259986",
    "lat": "23.723894"
  },
  {
    "id": 41,
    "pid": 39,
    "name": "博罗县",
    "level": 3,
    "adcode": "441322",
    "lng": "114.284254",
    "lat": "23.167575"
  },
  {
    "id": 42,
    "pid": 39,
    "name": "惠东县",
    "level": 3,
    "adcode": "441323",
    "lng": "114.723092",
    "lat": "22.983036"
  },
  {
    "id": 43,
    "pid": 39,
    "name": "惠阳区",
    "level": 3,
    "adcode": "441303",
    "lng": "114.469444",
    "lat": "22.78851"
  },
  {
    "id": 44,
    "pid": 39,
    "name": "惠城区",
    "level": 3,
    "adcode": "441302",
    "lng": "114.413978",
    "lat": "23.079883"
  },
  {
    "id": 45,
    "pid": 1,
    "name": "肇庆市",
    "level": 2,
    "adcode": "441200",
    "lng": "112.472529",
    "lat": "23.051546"
  },
  {
    "id": 46,
    "pid": 45,
    "name": "怀集县",
    "level": 3,
    "adcode": "441224",
    "lng": "112.182466",
    "lat": "23.913072"
  },
  {
    "id": 47,
    "pid": 45,
    "name": "封开县",
    "level": 3,
    "adcode": "441225",
    "lng": "111.502973",
    "lat": "23.434731"
  },
  {
    "id": 48,
    "pid": 45,
    "name": "广宁县",
    "level": 3,
    "adcode": "441223",
    "lng": "112.440419",
    "lat": "23.631486"
  },
  {
    "id": 49,
    "pid": 45,
    "name": "四会市",
    "level": 3,
    "adcode": "441284",
    "lng": "112.695028",
    "lat": "23.340324"
  },
  {
    "id": 50,
    "pid": 45,
    "name": "德庆县",
    "level": 3,
    "adcode": "441226",
    "lng": "111.78156",
    "lat": "23.141711"
  },
  {
    "id": 51,
    "pid": 45,
    "name": "鼎湖区",
    "level": 3,
    "adcode": "441203",
    "lng": "112.565249",
    "lat": "23.155822"
  },
  {
    "id": 52,
    "pid": 45,
    "name": "端州区",
    "level": 3,
    "adcode": "441202",
    "lng": "112.472329",
    "lat": "23.052662"
  },
  {
    "id": 53,
    "pid": 45,
    "name": "高要区",
    "level": 3,
    "adcode": "441204",
    "lng": "112.460846",
    "lat": "23.027694"
  },
  {
    "id": 54,
    "pid": 1,
    "name": "汕尾市",
    "level": 2,
    "adcode": "441500",
    "lng": "115.364238",
    "lat": "22.774485"
  },
  {
    "id": 55,
    "pid": 54,
    "name": "陆河县",
    "level": 3,
    "adcode": "441523",
    "lng": "115.657565",
    "lat": "23.302682"
  },
  {
    "id": 56,
    "pid": 54,
    "name": "陆丰市",
    "level": 3,
    "adcode": "441581",
    "lng": "115.644203",
    "lat": "22.946104"
  },
  {
    "id": 57,
    "pid": 54,
    "name": "海丰县",
    "level": 3,
    "adcode": "441521",
    "lng": "115.337324",
    "lat": "22.971042"
  },
  {
    "id": 58,
    "pid": 54,
    "name": "城区",
    "level": 3,
    "adcode": "441502",
    "lng": "115.363667",
    "lat": "22.776227"
  },
  {
    "id": 59,
    "pid": 1,
    "name": "茂名市",
    "level": 2,
    "adcode": "440900",
    "lng": "110.919229",
    "lat": "21.659751"
  },
  {
    "id": 60,
    "pid": 59,
    "name": "信宜市",
    "level": 3,
    "adcode": "440983",
    "lng": "110.941656",
    "lat": "22.352681"
  },
  {
    "id": 61,
    "pid": 59,
    "name": "化州市",
    "level": 3,
    "adcode": "440982",
    "lng": "110.63839",
    "lat": "21.654953"
  },
  {
    "id": 62,
    "pid": 59,
    "name": "高州市",
    "level": 3,
    "adcode": "440981",
    "lng": "110.853251",
    "lat": "21.915153"
  },
  {
    "id": 63,
    "pid": 59,
    "name": "电白区",
    "level": 3,
    "adcode": "440904",
    "lng": "111.007264",
    "lat": "21.507219"
  },
  {
    "id": 64,
    "pid": 59,
    "name": "茂南区",
    "level": 3,
    "adcode": "440902",
    "lng": "110.920542",
    "lat": "21.660425"
  },
  {
    "id": 65,
    "pid": 1,
    "name": "深圳市",
    "level": 2,
    "adcode": "440300",
    "lng": "114.085947",
    "lat": "22.547"
  },
  {
    "id": 66,
    "pid": 65,
    "name": "宝安区",
    "level": 3,
    "adcode": "440306",
    "lng": "113.828671",
    "lat": "22.754741"
  },
  {
    "id": 67,
    "pid": 65,
    "name": "南山区",
    "level": 3,
    "adcode": "440305",
    "lng": "113.92943",
    "lat": "22.531221"
  },
  {
    "id": 68,
    "pid": 65,
    "name": "福田区",
    "level": 3,
    "adcode": "440304",
    "lng": "114.05096",
    "lat": "22.541009"
  },
  {
    "id": 69,
    "pid": 65,
    "name": "盐田区",
    "level": 3,
    "adcode": "440308",
    "lng": "114.235366",
    "lat": "22.555069"
  },
  {
    "id": 70,
    "pid": 65,
    "name": "罗湖区",
    "level": 3,
    "adcode": "440303",
    "lng": "114.123885",
    "lat": "22.555341"
  },
  {
    "id": 71,
    "pid": 65,
    "name": "龙华区",
    "level": 3,
    "adcode": "440309",
    "lng": "114.044346",
    "lat": "22.691963"
  },
  {
    "id": 72,
    "pid": 65,
    "name": "龙岗区",
    "level": 3,
    "adcode": "440307",
    "lng": "114.251372",
    "lat": "22.721511"
  },
  {
    "id": 73,
    "pid": 65,
    "name": "坪山区",
    "level": 3,
    "adcode": "440310",
    "lng": "114.338441",
    "lat": "22.69423"
  },
  {
    "id": 74,
    "pid": 1,
    "name": "阳江市",
    "level": 2,
    "adcode": "441700",
    "lng": "111.975107",
    "lat": "21.859222"
  },
  {
    "id": 75,
    "pid": 74,
    "name": "阳春市",
    "level": 3,
    "adcode": "441781",
    "lng": "111.7905",
    "lat": "22.169598"
  },
  {
    "id": 76,
    "pid": 74,
    "name": "江城区",
    "level": 3,
    "adcode": "441702",
    "lng": "111.968909",
    "lat": "21.859182"
  },
  {
    "id": 77,
    "pid": 74,
    "name": "阳西县",
    "level": 3,
    "adcode": "441721",
    "lng": "111.617556",
    "lat": "21.75367"
  },
  {
    "id": 78,
    "pid": 74,
    "name": "阳东区",
    "level": 3,
    "adcode": "441704",
    "lng": "112.011267",
    "lat": "21.864728"
  },
  {
    "id": 79,
    "pid": 1,
    "name": "潮州市",
    "level": 2,
    "adcode": "445100",
    "lng": "116.632301",
    "lat": "23.661701"
  },
  {
    "id": 80,
    "pid": 79,
    "name": "饶平县",
    "level": 3,
    "adcode": "445122",
    "lng": "117.00205",
    "lat": "23.668171"
  },
  {
    "id": 81,
    "pid": 79,
    "name": "湘桥区",
    "level": 3,
    "adcode": "445102",
    "lng": "116.63365",
    "lat": "23.664675"
  },
  {
    "id": 82,
    "pid": 79,
    "name": "潮安区",
    "level": 3,
    "adcode": "445103",
    "lng": "116.67931",
    "lat": "23.461012"
  },
  {
    "id": 83,
    "pid": 1,
    "name": "韶关市",
    "level": 2,
    "adcode": "440200",
    "lng": "113.591544",
    "lat": "24.801322"
  },
  {
    "id": 84,
    "pid": 83,
    "name": "仁化县",
    "level": 3,
    "adcode": "440224",
    "lng": "113.748627",
    "lat": "25.088226"
  },
  {
    "id": 85,
    "pid": 83,
    "name": "南雄市",
    "level": 3,
    "adcode": "440282",
    "lng": "114.311231",
    "lat": "25.115328"
  },
  {
    "id": 86,
    "pid": 83,
    "name": "曲江区",
    "level": 3,
    "adcode": "440205",
    "lng": "113.605582",
    "lat": "24.680195"
  },
  {
    "id": 87,
    "pid": 83,
    "name": "浈江区",
    "level": 3,
    "adcode": "440204",
    "lng": "113.599224",
    "lat": "24.803977"
  },
  {
    "id": 88,
    "pid": 83,
    "name": "始兴县",
    "level": 3,
    "adcode": "440222",
    "lng": "114.067205",
    "lat": "24.948364"
  },
  {
    "id": 89,
    "pid": 83,
    "name": "乳源瑶族自治县",
    "level": 3,
    "adcode": "440232",
    "lng": "113.278417",
    "lat": "24.776109"
  },
  {
    "id": 90,
    "pid": 83,
    "name": "武江区",
    "level": 3,
    "adcode": "440203",
    "lng": "113.588289",
    "lat": "24.80016"
  },
  {
    "id": 91,
    "pid": 83,
    "name": "翁源县",
    "level": 3,
    "adcode": "440229",
    "lng": "114.131289",
    "lat": "24.353887"
  },
  {
    "id": 92,
    "pid": 83,
    "name": "新丰县",
    "level": 3,
    "adcode": "440233",
    "lng": "114.207034",
    "lat": "24.055412"
  },
  {
    "id": 93,
    "pid": 83,
    "name": "乐昌市",
    "level": 3,
    "adcode": "440281",
    "lng": "113.352413",
    "lat": "25.128445"
  },
  {
    "id": 94,
    "pid": 1,
    "name": "梅州市",
    "level": 2,
    "adcode": "441400",
    "lng": "116.117582",
    "lat": "24.299112"
  },
  {
    "id": 95,
    "pid": 94,
    "name": "平远县",
    "level": 3,
    "adcode": "441426",
    "lng": "115.891729",
    "lat": "24.569651"
  },
  {
    "id": 96,
    "pid": 94,
    "name": "蕉岭县",
    "level": 3,
    "adcode": "441427",
    "lng": "116.170531",
    "lat": "24.653313"
  },
  {
    "id": 97,
    "pid": 94,
    "name": "兴宁市",
    "level": 3,
    "adcode": "441481",
    "lng": "115.731648",
    "lat": "24.138077"
  },
  {
    "id": 98,
    "pid": 94,
    "name": "五华县",
    "level": 3,
    "adcode": "441424",
    "lng": "115.775004",
    "lat": "23.925424"
  },
  {
    "id": 99,
    "pid": 94,
    "name": "梅县区",
    "level": 3,
    "adcode": "441403",
    "lng": "116.083482",
    "lat": "24.267825"
  },
  {
    "id": 100,
    "pid": 94,
    "name": "丰顺县",
    "level": 3,
    "adcode": "441423",
    "lng": "116.184419",
    "lat": "23.752771"
  },
  {
    "id": 101,
    "pid": 94,
    "name": "大埔县",
    "level": 3,
    "adcode": "441422",
    "lng": "116.69552",
    "lat": "24.351587"
  },
  {
    "id": 102,
    "pid": 94,
    "name": "梅江区",
    "level": 3,
    "adcode": "441402",
    "lng": "116.12116",
    "lat": "24.302593"
  },
  {
    "id": 103,
    "pid": 1,
    "name": "河源市",
    "level": 2,
    "adcode": "441600",
    "lng": "114.697802",
    "lat": "23.746266"
  },
  {
    "id": 104,
    "pid": 103,
    "name": "龙川县",
    "level": 3,
    "adcode": "441622",
    "lng": "115.256415",
    "lat": "24.101174"
  },
  {
    "id": 105,
    "pid": 103,
    "name": "和平县",
    "level": 3,
    "adcode": "441624",
    "lng": "114.941473",
    "lat": "24.44318"
  },
  {
    "id": 106,
    "pid": 103,
    "name": "连平县",
    "level": 3,
    "adcode": "441623",
    "lng": "114.495952",
    "lat": "24.364227"
  },
  {
    "id": 107,
    "pid": 103,
    "name": "东源县",
    "level": 3,
    "adcode": "441625",
    "lng": "114.742711",
    "lat": "23.789093"
  },
  {
    "id": 108,
    "pid": 103,
    "name": "源城区",
    "level": 3,
    "adcode": "441602",
    "lng": "114.696828",
    "lat": "23.746255"
  },
  {
    "id": 109,
    "pid": 103,
    "name": "紫金县",
    "level": 3,
    "adcode": "441621",
    "lng": "115.184383",
    "lat": "23.633744"
  },
  {
    "id": 110,
    "pid": 1,
    "name": "清远市",
    "level": 2,
    "adcode": "441800",
    "lng": "113.051227",
    "lat": "23.685022"
  },
  {
    "id": 111,
    "pid": 110,
    "name": "连南瑶族自治县",
    "level": 3,
    "adcode": "441826",
    "lng": "112.290808",
    "lat": "24.719097"
  },
  {
    "id": 112,
    "pid": 110,
    "name": "连州市",
    "level": 3,
    "adcode": "441882",
    "lng": "112.379271",
    "lat": "24.783966"
  },
  {
    "id": 113,
    "pid": 110,
    "name": "连山壮族瑶族自治县",
    "level": 3,
    "adcode": "441825",
    "lng": "112.086555",
    "lat": "24.567271"
  },
  {
    "id": 114,
    "pid": 110,
    "name": "英德市",
    "level": 3,
    "adcode": "441881",
    "lng": "113.405404",
    "lat": "24.18612"
  },
  {
    "id": 115,
    "pid": 110,
    "name": "佛冈县",
    "level": 3,
    "adcode": "441821",
    "lng": "113.534094",
    "lat": "23.866739"
  },
  {
    "id": 116,
    "pid": 110,
    "name": "阳山县",
    "level": 3,
    "adcode": "441823",
    "lng": "112.634019",
    "lat": "24.470286"
  },
  {
    "id": 117,
    "pid": 110,
    "name": "清新区",
    "level": 3,
    "adcode": "441803",
    "lng": "113.015203",
    "lat": "23.736949"
  },
  {
    "id": 118,
    "pid": 110,
    "name": "清城区",
    "level": 3,
    "adcode": "441802",
    "lng": "113.048698",
    "lat": "23.688976"
  },
  {
    "id": 119,
    "pid": 1,
    "name": "东莞市",
    "level": 2,
    "adcode": "441900",
    "lng": "113.746262",
    "lat": "23.046237"
  },
  {
    "id": 155,
    "pid": 1,
    "name": "云浮市",
    "level": 2,
    "adcode": "445300",
    "lng": "112.044439",
    "lat": "22.929801"
  },
  {
    "id": 156,
    "pid": 155,
    "name": "罗定市",
    "level": 3,
    "adcode": "445381",
    "lng": "111.578201",
    "lat": "22.765415"
  },
  {
    "id": 157,
    "pid": 155,
    "name": "郁南县",
    "level": 3,
    "adcode": "445322",
    "lng": "111.535921",
    "lat": "23.237709"
  },
  {
    "id": 158,
    "pid": 155,
    "name": "新兴县",
    "level": 3,
    "adcode": "445321",
    "lng": "112.23083",
    "lat": "22.703204"
  },
  {
    "id": 159,
    "pid": 155,
    "name": "云安区",
    "level": 3,
    "adcode": "445303",
    "lng": "112.005609",
    "lat": "23.073152"
  },
  {
    "id": 160,
    "pid": 155,
    "name": "云城区",
    "level": 3,
    "adcode": "445302",
    "lng": "112.04471",
    "lat": "22.930827"
  },
  {
    "id": 161,
    "pid": 1,
    "name": "揭阳市",
    "level": 2,
    "adcode": "445200",
    "lng": "116.355733",
    "lat": "23.543778"
  },
  {
    "id": 162,
    "pid": 161,
    "name": "揭西县",
    "level": 3,
    "adcode": "445222",
    "lng": "115.838708",
    "lat": "23.4273"
  },
  {
    "id": 163,
    "pid": 161,
    "name": "普宁市",
    "level": 3,
    "adcode": "445281",
    "lng": "116.165082",
    "lat": "23.29788"
  },
  {
    "id": 164,
    "pid": 161,
    "name": "惠来县",
    "level": 3,
    "adcode": "445224",
    "lng": "116.295832",
    "lat": "23.029834"
  },
  {
    "id": 165,
    "pid": 161,
    "name": "揭东区",
    "level": 3,
    "adcode": "445203",
    "lng": "116.412947",
    "lat": "23.569887"
  },
  {
    "id": 166,
    "pid": 161,
    "name": "榕城区",
    "level": 3,
    "adcode": "445202",
    "lng": "116.357045",
    "lat": "23.535524"
  },
  {
    "id": 167,
    "pid": 1,
    "name": "广州市",
    "level": 2,
    "adcode": "440100",
    "lng": "113.280637",
    "lat": "23.125178"
  },
  {
    "id": 168,
    "pid": 167,
    "name": "从化区",
    "level": 3,
    "adcode": "440117",
    "lng": "113.587386",
    "lat": "23.545283"
  },
  {
    "id": 169,
    "pid": 167,
    "name": "增城区",
    "level": 3,
    "adcode": "440118",
    "lng": "113.829579",
    "lat": "23.290497"
  },
  {
    "id": 170,
    "pid": 167,
    "name": "南沙区",
    "level": 3,
    "adcode": "440115",
    "lng": "113.53738",
    "lat": "22.794531"
  },
  {
    "id": 171,
    "pid": 167,
    "name": "花都区",
    "level": 3,
    "adcode": "440114",
    "lng": "113.211184",
    "lat": "23.39205"
  },
  {
    "id": 172,
    "pid": 167,
    "name": "黄埔区",
    "level": 3,
    "adcode": "440112",
    "lng": "113.450761",
    "lat": "23.103239"
  },
  {
    "id": 173,
    "pid": 167,
    "name": "白云区",
    "level": 3,
    "adcode": "440111",
    "lng": "113.262831",
    "lat": "23.162281"
  },
  {
    "id": 174,
    "pid": 167,
    "name": "天河区",
    "level": 3,
    "adcode": "440106",
    "lng": "113.335367",
    "lat": "23.13559"
  },
  {
    "id": 175,
    "pid": 167,
    "name": "海珠区",
    "level": 3,
    "adcode": "440105",
    "lng": "113.262008",
    "lat": "23.103131"
  },
  {
    "id": 176,
    "pid": 167,
    "name": "荔湾区",
    "level": 3,
    "adcode": "440103",
    "lng": "113.243038",
    "lat": "23.124943"
  },
  {
    "id": 177,
    "pid": 167,
    "name": "越秀区",
    "level": 3,
    "adcode": "440104",
    "lng": "113.280714",
    "lat": "23.125624"
  },
  {
    "id": 178,
    "pid": 167,
    "name": "番禺区",
    "level": 3,
    "adcode": "440113",
    "lng": "113.364619",
    "lat": "22.938582"
  },
  {
    "id": 179,
    "pid": 1,
    "name": "中山市",
    "level": 2,
    "adcode": "442000",
    "lng": "113.382391",
    "lat": "22.521113"
  },
  {
    "id": 204,
    "pid": 1,
    "name": "东沙群岛",
    "level": 2,
    "adcode": "442100",
    "lng": "116.887312",
    "lat": "20.617512"
  },
  {
    "id": 205,
    "pid": 0,
    "name": "河南省",
    "level": 1,
    "adcode": "410000",
    "lng": "113.665412",
    "lat": "34.757975"
  },
  {
    "id": 206,
    "pid": 205,
    "name": "濮阳市",
    "level": 2,
    "adcode": "410900",
    "lng": "115.041299",
    "lat": "35.768234"
  },
  {
    "id": 207,
    "pid": 206,
    "name": "清丰县",
    "level": 3,
    "adcode": "410922",
    "lng": "115.107287",
    "lat": "35.902413"
  },
  {
    "id": 208,
    "pid": 206,
    "name": "南乐县",
    "level": 3,
    "adcode": "410923",
    "lng": "115.204336",
    "lat": "36.075204"
  },
  {
    "id": 209,
    "pid": 206,
    "name": "台前县",
    "level": 3,
    "adcode": "410927",
    "lng": "115.855681",
    "lat": "35.996474"
  },
  {
    "id": 210,
    "pid": 206,
    "name": "华龙区",
    "level": 3,
    "adcode": "410902",
    "lng": "115.03184",
    "lat": "35.760473"
  },
  {
    "id": 211,
    "pid": 206,
    "name": "范县",
    "level": 3,
    "adcode": "410926",
    "lng": "115.504212",
    "lat": "35.851977"
  },
  {
    "id": 212,
    "pid": 206,
    "name": "濮阳县",
    "level": 3,
    "adcode": "410928",
    "lng": "115.023844",
    "lat": "35.710349"
  },
  {
    "id": 213,
    "pid": 205,
    "name": "洛阳市",
    "level": 2,
    "adcode": "410300",
    "lng": "112.434468",
    "lat": "34.663041"
  },
  {
    "id": 214,
    "pid": 213,
    "name": "新安县",
    "level": 3,
    "adcode": "410323",
    "lng": "112.141403",
    "lat": "34.728679"
  },
  {
    "id": 215,
    "pid": 213,
    "name": "孟津县",
    "level": 3,
    "adcode": "410322",
    "lng": "112.443892",
    "lat": "34.826485"
  },
  {
    "id": 216,
    "pid": 213,
    "name": "嵩县",
    "level": 3,
    "adcode": "410325",
    "lng": "112.087765",
    "lat": "34.131563"
  },
  {
    "id": 217,
    "pid": 213,
    "name": "栾川县",
    "level": 3,
    "adcode": "410324",
    "lng": "111.618386",
    "lat": "33.783195"
  },
  {
    "id": 218,
    "pid": 213,
    "name": "汝阳县",
    "level": 3,
    "adcode": "410326",
    "lng": "112.473789",
    "lat": "34.15323"
  },
  {
    "id": 219,
    "pid": 213,
    "name": "涧西区",
    "level": 3,
    "adcode": "410305",
    "lng": "112.399243",
    "lat": "34.654251"
  },
  {
    "id": 220,
    "pid": 213,
    "name": "伊川县",
    "level": 3,
    "adcode": "410329",
    "lng": "112.429384",
    "lat": "34.423416"
  },
  {
    "id": 221,
    "pid": 213,
    "name": "吉利区",
    "level": 3,
    "adcode": "410306",
    "lng": "112.584796",
    "lat": "34.899093"
  },
  {
    "id": 222,
    "pid": 213,
    "name": "宜阳县",
    "level": 3,
    "adcode": "410327",
    "lng": "112.179989",
    "lat": "34.516478"
  },
  {
    "id": 223,
    "pid": 213,
    "name": "洛宁县",
    "level": 3,
    "adcode": "410328",
    "lng": "111.655399",
    "lat": "34.387179"
  },
  {
    "id": 224,
    "pid": 213,
    "name": "偃师市",
    "level": 3,
    "adcode": "410381",
    "lng": "112.787739",
    "lat": "34.723042"
  },
  {
    "id": 225,
    "pid": 213,
    "name": "瀍河回族区",
    "level": 3,
    "adcode": "410304",
    "lng": "112.491625",
    "lat": "34.684738"
  },
  {
    "id": 226,
    "pid": 213,
    "name": "洛龙区",
    "level": 3,
    "adcode": "410311",
    "lng": "112.456634",
    "lat": "34.618557"
  },
  {
    "id": 227,
    "pid": 213,
    "name": "老城区",
    "level": 3,
    "adcode": "410302",
    "lng": "112.477298",
    "lat": "34.682945"
  },
  {
    "id": 228,
    "pid": 213,
    "name": "西工区",
    "level": 3,
    "adcode": "410303",
    "lng": "112.443232",
    "lat": "34.667847"
  },
  {
    "id": 229,
    "pid": 205,
    "name": "三门峡市",
    "level": 2,
    "adcode": "411200",
    "lng": "111.194099",
    "lat": "34.777338"
  },
  {
    "id": 230,
    "pid": 229,
    "name": "湖滨区",
    "level": 3,
    "adcode": "411202",
    "lng": "111.19487",
    "lat": "34.77812"
  },
  {
    "id": 231,
    "pid": 229,
    "name": "义马市",
    "level": 3,
    "adcode": "411281",
    "lng": "111.869417",
    "lat": "34.746868"
  },
  {
    "id": 232,
    "pid": 229,
    "name": "渑池县",
    "level": 3,
    "adcode": "411221",
    "lng": "111.762992",
    "lat": "34.763487"
  },
  {
    "id": 233,
    "pid": 229,
    "name": "卢氏县",
    "level": 3,
    "adcode": "411224",
    "lng": "111.052649",
    "lat": "34.053995"
  },
  {
    "id": 234,
    "pid": 229,
    "name": "陕州区",
    "level": 3,
    "adcode": "411203",
    "lng": "111.103851",
    "lat": "34.720244"
  },
  {
    "id": 235,
    "pid": 229,
    "name": "灵宝市",
    "level": 3,
    "adcode": "411282",
    "lng": "110.88577",
    "lat": "34.521264"
  },
  {
    "id": 236,
    "pid": 205,
    "name": "郑州市",
    "level": 2,
    "adcode": "410100",
    "lng": "113.665412",
    "lat": "34.757975"
  },
  {
    "id": 237,
    "pid": 236,
    "name": "登封市",
    "level": 3,
    "adcode": "410185",
    "lng": "113.037768",
    "lat": "34.459939"
  },
  {
    "id": 238,
    "pid": 236,
    "name": "巩义市",
    "level": 3,
    "adcode": "410181",
    "lng": "112.98283",
    "lat": "34.75218"
  },
  {
    "id": 239,
    "pid": 236,
    "name": "荥阳市",
    "level": 3,
    "adcode": "410182",
    "lng": "113.391523",
    "lat": "34.789077"
  },
  {
    "id": 240,
    "pid": 236,
    "name": "上街区",
    "level": 3,
    "adcode": "410106",
    "lng": "113.298282",
    "lat": "34.808689"
  },
  {
    "id": 241,
    "pid": 236,
    "name": "新郑市",
    "level": 3,
    "adcode": "410184",
    "lng": "113.73967",
    "lat": "34.394219"
  },
  {
    "id": 242,
    "pid": 236,
    "name": "惠济区",
    "level": 3,
    "adcode": "410108",
    "lng": "113.61836",
    "lat": "34.828591"
  },
  {
    "id": 243,
    "pid": 236,
    "name": "金水区",
    "level": 3,
    "adcode": "410105",
    "lng": "113.686037",
    "lat": "34.775838"
  },
  {
    "id": 244,
    "pid": 236,
    "name": "中原区",
    "level": 3,
    "adcode": "410102",
    "lng": "113.611576",
    "lat": "34.748286"
  },
  {
    "id": 245,
    "pid": 236,
    "name": "二七区",
    "level": 3,
    "adcode": "410103",
    "lng": "113.645422",
    "lat": "34.730936"
  },
  {
    "id": 246,
    "pid": 236,
    "name": "新密市",
    "level": 3,
    "adcode": "410183",
    "lng": "113.380616",
    "lat": "34.537846"
  },
  {
    "id": 247,
    "pid": 236,
    "name": "管城回族区",
    "level": 3,
    "adcode": "410104",
    "lng": "113.685313",
    "lat": "34.746453"
  },
  {
    "id": 248,
    "pid": 236,
    "name": "中牟县",
    "level": 3,
    "adcode": "410122",
    "lng": "114.022521",
    "lat": "34.721976"
  },
  {
    "id": 249,
    "pid": 205,
    "name": "许昌市",
    "level": 2,
    "adcode": "411000",
    "lng": "113.826063",
    "lat": "34.022956"
  },
  {
    "id": 250,
    "pid": 249,
    "name": "建安区",
    "level": 3,
    "adcode": "411003",
    "lng": "113.842898",
    "lat": "34.005018"
  },
  {
    "id": 251,
    "pid": 249,
    "name": "襄城县",
    "level": 3,
    "adcode": "411025",
    "lng": "113.493166",
    "lat": "33.855943"
  },
  {
    "id": 252,
    "pid": 249,
    "name": "魏都区",
    "level": 3,
    "adcode": "411002",
    "lng": "113.828307",
    "lat": "34.02711"
  },
  {
    "id": 253,
    "pid": 249,
    "name": "长葛市",
    "level": 3,
    "adcode": "411082",
    "lng": "113.768912",
    "lat": "34.219257"
  },
  {
    "id": 254,
    "pid": 249,
    "name": "禹州市",
    "level": 3,
    "adcode": "411081",
    "lng": "113.471316",
    "lat": "34.154403"
  },
  {
    "id": 255,
    "pid": 249,
    "name": "鄢陵县",
    "level": 3,
    "adcode": "411024",
    "lng": "114.188507",
    "lat": "34.100502"
  },
  {
    "id": 256,
    "pid": 205,
    "name": "南阳市",
    "level": 2,
    "adcode": "411300",
    "lng": "112.540918",
    "lat": "32.999082"
  },
  {
    "id": 257,
    "pid": 256,
    "name": "西峡县",
    "level": 3,
    "adcode": "411323",
    "lng": "111.485772",
    "lat": "33.302981"
  },
  {
    "id": 258,
    "pid": 256,
    "name": "淅川县",
    "level": 3,
    "adcode": "411326",
    "lng": "111.489026",
    "lat": "33.136106"
  },
  {
    "id": 259,
    "pid": 256,
    "name": "南召县",
    "level": 3,
    "adcode": "411321",
    "lng": "112.435583",
    "lat": "33.488617"
  },
  {
    "id": 260,
    "pid": 256,
    "name": "卧龙区",
    "level": 3,
    "adcode": "411303",
    "lng": "112.528789",
    "lat": "32.989877"
  },
  {
    "id": 261,
    "pid": 256,
    "name": "唐河县",
    "level": 3,
    "adcode": "411328",
    "lng": "112.838492",
    "lat": "32.687892"
  },
  {
    "id": 262,
    "pid": 256,
    "name": "桐柏县",
    "level": 3,
    "adcode": "411330",
    "lng": "113.406059",
    "lat": "32.367153"
  },
  {
    "id": 263,
    "pid": 256,
    "name": "社旗县",
    "level": 3,
    "adcode": "411327",
    "lng": "112.938279",
    "lat": "33.056126"
  },
  {
    "id": 264,
    "pid": 256,
    "name": "方城县",
    "level": 3,
    "adcode": "411322",
    "lng": "113.010933",
    "lat": "33.255138"
  },
  {
    "id": 265,
    "pid": 256,
    "name": "镇平县",
    "level": 3,
    "adcode": "411324",
    "lng": "112.232722",
    "lat": "33.036651"
  },
  {
    "id": 266,
    "pid": 256,
    "name": "内乡县",
    "level": 3,
    "adcode": "411325",
    "lng": "111.843801",
    "lat": "33.046358"
  },
  {
    "id": 267,
    "pid": 256,
    "name": "新野县",
    "level": 3,
    "adcode": "411329",
    "lng": "112.365624",
    "lat": "32.524006"
  },
  {
    "id": 268,
    "pid": 256,
    "name": "邓州市",
    "level": 3,
    "adcode": "411381",
    "lng": "112.092716",
    "lat": "32.681642"
  },
  {
    "id": 269,
    "pid": 256,
    "name": "宛城区",
    "level": 3,
    "adcode": "411302",
    "lng": "112.544591",
    "lat": "32.994857"
  },
  {
    "id": 270,
    "pid": 205,
    "name": "漯河市",
    "level": 2,
    "adcode": "411100",
    "lng": "114.026405",
    "lat": "33.575855"
  },
  {
    "id": 271,
    "pid": 270,
    "name": "郾城区",
    "level": 3,
    "adcode": "411103",
    "lng": "114.016813",
    "lat": "33.588897"
  },
  {
    "id": 272,
    "pid": 270,
    "name": "临颍县",
    "level": 3,
    "adcode": "411122",
    "lng": "113.938891",
    "lat": "33.80609"
  },
  {
    "id": 273,
    "pid": 270,
    "name": "召陵区",
    "level": 3,
    "adcode": "411104",
    "lng": "114.051686",
    "lat": "33.567555"
  },
  {
    "id": 274,
    "pid": 270,
    "name": "舞阳县",
    "level": 3,
    "adcode": "411121",
    "lng": "113.610565",
    "lat": "33.436278"
  },
  {
    "id": 275,
    "pid": 270,
    "name": "源汇区",
    "level": 3,
    "adcode": "411102",
    "lng": "114.017948",
    "lat": "33.565441"
  },
  {
    "id": 276,
    "pid": 205,
    "name": "济源市",
    "level": 2,
    "adcode": "419001",
    "lng": "112.590047",
    "lat": "35.090378"
  },
  {
    "id": 293,
    "pid": 205,
    "name": "平顶山市",
    "level": 2,
    "adcode": "410400",
    "lng": "113.307718",
    "lat": "33.735241"
  },
  {
    "id": 294,
    "pid": 293,
    "name": "郏县",
    "level": 3,
    "adcode": "410425",
    "lng": "113.220451",
    "lat": "33.971993"
  },
  {
    "id": 295,
    "pid": 293,
    "name": "宝丰县",
    "level": 3,
    "adcode": "410421",
    "lng": "113.066812",
    "lat": "33.866359"
  },
  {
    "id": 296,
    "pid": 293,
    "name": "石龙区",
    "level": 3,
    "adcode": "410404",
    "lng": "112.889885",
    "lat": "33.901538"
  },
  {
    "id": 297,
    "pid": 293,
    "name": "卫东区",
    "level": 3,
    "adcode": "410403",
    "lng": "113.310327",
    "lat": "33.739285"
  },
  {
    "id": 298,
    "pid": 293,
    "name": "湛河区",
    "level": 3,
    "adcode": "410411",
    "lng": "113.320873",
    "lat": "33.725681"
  },
  {
    "id": 299,
    "pid": 293,
    "name": "鲁山县",
    "level": 3,
    "adcode": "410423",
    "lng": "112.906703",
    "lat": "33.740325"
  },
  {
    "id": 300,
    "pid": 293,
    "name": "舞钢市",
    "level": 3,
    "adcode": "410481",
    "lng": "113.52625",
    "lat": "33.302082"
  },
  {
    "id": 301,
    "pid": 293,
    "name": "叶县",
    "level": 3,
    "adcode": "410422",
    "lng": "113.358298",
    "lat": "33.621252"
  },
  {
    "id": 302,
    "pid": 293,
    "name": "新华区",
    "level": 3,
    "adcode": "410402",
    "lng": "113.299061",
    "lat": "33.737579"
  },
  {
    "id": 303,
    "pid": 293,
    "name": "汝州市",
    "level": 3,
    "adcode": "410482",
    "lng": "112.845336",
    "lat": "34.167408"
  },
  {
    "id": 304,
    "pid": 205,
    "name": "信阳市",
    "level": 2,
    "adcode": "411500",
    "lng": "114.075031",
    "lat": "32.123274"
  },
  {
    "id": 305,
    "pid": 304,
    "name": "潢川县",
    "level": 3,
    "adcode": "411526",
    "lng": "115.050123",
    "lat": "32.134024"
  },
  {
    "id": 306,
    "pid": 304,
    "name": "淮滨县",
    "level": 3,
    "adcode": "411527",
    "lng": "115.415451",
    "lat": "32.452639"
  },
  {
    "id": 307,
    "pid": 304,
    "name": "光山县",
    "level": 3,
    "adcode": "411522",
    "lng": "114.903577",
    "lat": "32.010398"
  },
  {
    "id": 308,
    "pid": 304,
    "name": "罗山县",
    "level": 3,
    "adcode": "411521",
    "lng": "114.533414",
    "lat": "32.203206"
  },
  {
    "id": 309,
    "pid": 304,
    "name": "商城县",
    "level": 3,
    "adcode": "411524",
    "lng": "115.406297",
    "lat": "31.799982"
  },
  {
    "id": 310,
    "pid": 304,
    "name": "浉河区",
    "level": 3,
    "adcode": "411502",
    "lng": "114.075031",
    "lat": "32.123274"
  },
  {
    "id": 311,
    "pid": 304,
    "name": "固始县",
    "level": 3,
    "adcode": "411525",
    "lng": "115.667328",
    "lat": "32.183074"
  },
  {
    "id": 312,
    "pid": 304,
    "name": "新县",
    "level": 3,
    "adcode": "411523",
    "lng": "114.87705",
    "lat": "31.63515"
  },
  {
    "id": 313,
    "pid": 304,
    "name": "息县",
    "level": 3,
    "adcode": "411528",
    "lng": "114.740713",
    "lat": "32.344744"
  },
  {
    "id": 314,
    "pid": 304,
    "name": "平桥区",
    "level": 3,
    "adcode": "411503",
    "lng": "114.126027",
    "lat": "32.098395"
  },
  {
    "id": 315,
    "pid": 205,
    "name": "焦作市",
    "level": 2,
    "adcode": "410800",
    "lng": "113.238266",
    "lat": "35.23904"
  },
  {
    "id": 316,
    "pid": 315,
    "name": "马村区",
    "level": 3,
    "adcode": "410804",
    "lng": "113.321703",
    "lat": "35.265453"
  },
  {
    "id": 317,
    "pid": 315,
    "name": "解放区",
    "level": 3,
    "adcode": "410802",
    "lng": "113.226126",
    "lat": "35.241353"
  },
  {
    "id": 318,
    "pid": 315,
    "name": "沁阳市",
    "level": 3,
    "adcode": "410882",
    "lng": "112.934538",
    "lat": "35.08901"
  },
  {
    "id": 319,
    "pid": 315,
    "name": "温县",
    "level": 3,
    "adcode": "410825",
    "lng": "113.079118",
    "lat": "34.941233"
  },
  {
    "id": 320,
    "pid": 315,
    "name": "孟州市",
    "level": 3,
    "adcode": "410883",
    "lng": "112.78708",
    "lat": "34.90963"
  },
  {
    "id": 321,
    "pid": 315,
    "name": "山阳区",
    "level": 3,
    "adcode": "410811",
    "lng": "113.26766",
    "lat": "35.21476"
  },
  {
    "id": 322,
    "pid": 315,
    "name": "博爱县",
    "level": 3,
    "adcode": "410822",
    "lng": "113.069313",
    "lat": "35.170351"
  },
  {
    "id": 323,
    "pid": 315,
    "name": "武陟县",
    "level": 3,
    "adcode": "410823",
    "lng": "113.408334",
    "lat": "35.09885"
  },
  {
    "id": 324,
    "pid": 315,
    "name": "修武县",
    "level": 3,
    "adcode": "410821",
    "lng": "113.447465",
    "lat": "35.229923"
  },
  {
    "id": 325,
    "pid": 315,
    "name": "中站区",
    "level": 3,
    "adcode": "410803",
    "lng": "113.175485",
    "lat": "35.236145"
  },
  {
    "id": 326,
    "pid": 205,
    "name": "安阳市",
    "level": 2,
    "adcode": "410500",
    "lng": "114.352482",
    "lat": "36.103442"
  },
  {
    "id": 327,
    "pid": 326,
    "name": "殷都区",
    "level": 3,
    "adcode": "410505",
    "lng": "114.300098",
    "lat": "36.108974"
  },
  {
    "id": 328,
    "pid": 326,
    "name": "内黄县",
    "level": 3,
    "adcode": "410527",
    "lng": "114.904582",
    "lat": "35.953702"
  },
  {
    "id": 329,
    "pid": 326,
    "name": "龙安区",
    "level": 3,
    "adcode": "410506",
    "lng": "114.323522",
    "lat": "36.095568"
  },
  {
    "id": 330,
    "pid": 326,
    "name": "汤阴县",
    "level": 3,
    "adcode": "410523",
    "lng": "114.362357",
    "lat": "35.922349"
  },
  {
    "id": 331,
    "pid": 326,
    "name": "滑县",
    "level": 3,
    "adcode": "410526",
    "lng": "114.524",
    "lat": "35.574628"
  },
  {
    "id": 332,
    "pid": 326,
    "name": "文峰区",
    "level": 3,
    "adcode": "410502",
    "lng": "114.352562",
    "lat": "36.098101"
  },
  {
    "id": 333,
    "pid": 326,
    "name": "北关区",
    "level": 3,
    "adcode": "410503",
    "lng": "114.352646",
    "lat": "36.10978"
  },
  {
    "id": 334,
    "pid": 326,
    "name": "安阳县",
    "level": 3,
    "adcode": "410522",
    "lng": "114.130207",
    "lat": "36.130585"
  },
  {
    "id": 335,
    "pid": 326,
    "name": "林州市",
    "level": 3,
    "adcode": "410581",
    "lng": "113.823767",
    "lat": "36.063403"
  },
  {
    "id": 336,
    "pid": 205,
    "name": "驻马店市",
    "level": 2,
    "adcode": "411700",
    "lng": "114.024736",
    "lat": "32.980169"
  },
  {
    "id": 337,
    "pid": 336,
    "name": "上蔡县",
    "level": 3,
    "adcode": "411722",
    "lng": "114.266892",
    "lat": "33.264719"
  },
  {
    "id": 338,
    "pid": 336,
    "name": "西平县",
    "level": 3,
    "adcode": "411721",
    "lng": "114.026864",
    "lat": "33.382315"
  },
  {
    "id": 339,
    "pid": 336,
    "name": "汝南县",
    "level": 3,
    "adcode": "411727",
    "lng": "114.359495",
    "lat": "33.004535"
  },
  {
    "id": 340,
    "pid": 336,
    "name": "平舆县",
    "level": 3,
    "adcode": "411723",
    "lng": "114.637105",
    "lat": "32.955626"
  },
  {
    "id": 341,
    "pid": 336,
    "name": "新蔡县",
    "level": 3,
    "adcode": "411729",
    "lng": "114.975246",
    "lat": "32.749948"
  },
  {
    "id": 342,
    "pid": 336,
    "name": "泌阳县",
    "level": 3,
    "adcode": "411726",
    "lng": "113.32605",
    "lat": "32.725129"
  },
  {
    "id": 343,
    "pid": 336,
    "name": "遂平县",
    "level": 3,
    "adcode": "411728",
    "lng": "114.00371",
    "lat": "33.14698"
  },
  {
    "id": 344,
    "pid": 336,
    "name": "驿城区",
    "level": 3,
    "adcode": "411702",
    "lng": "114.029149",
    "lat": "32.977559"
  },
  {
    "id": 345,
    "pid": 336,
    "name": "确山县",
    "level": 3,
    "adcode": "411725",
    "lng": "114.026679",
    "lat": "32.801538"
  },
  {
    "id": 346,
    "pid": 336,
    "name": "正阳县",
    "level": 3,
    "adcode": "411724",
    "lng": "114.38948",
    "lat": "32.601826"
  },
  {
    "id": 347,
    "pid": 205,
    "name": "商丘市",
    "level": 2,
    "adcode": "411400",
    "lng": "115.650497",
    "lat": "34.437054"
  },
  {
    "id": 348,
    "pid": 347,
    "name": "民权县",
    "level": 3,
    "adcode": "411421",
    "lng": "115.148146",
    "lat": "34.648455"
  },
  {
    "id": 349,
    "pid": 347,
    "name": "宁陵县",
    "level": 3,
    "adcode": "411423",
    "lng": "115.320055",
    "lat": "34.449299"
  },
  {
    "id": 350,
    "pid": 347,
    "name": "睢县",
    "level": 3,
    "adcode": "411422",
    "lng": "115.070109",
    "lat": "34.428433"
  },
  {
    "id": 351,
    "pid": 347,
    "name": "睢阳区",
    "level": 3,
    "adcode": "411403",
    "lng": "115.653813",
    "lat": "34.390536"
  },
  {
    "id": 352,
    "pid": 347,
    "name": "永城市",
    "level": 3,
    "adcode": "411481",
    "lng": "116.449672",
    "lat": "33.931318"
  },
  {
    "id": 353,
    "pid": 347,
    "name": "夏邑县",
    "level": 3,
    "adcode": "411426",
    "lng": "116.13989",
    "lat": "34.240894"
  },
  {
    "id": 354,
    "pid": 347,
    "name": "柘城县",
    "level": 3,
    "adcode": "411424",
    "lng": "115.307433",
    "lat": "34.075277"
  },
  {
    "id": 355,
    "pid": 347,
    "name": "梁园区",
    "level": 3,
    "adcode": "411402",
    "lng": "115.65459",
    "lat": "34.436553"
  },
  {
    "id": 356,
    "pid": 347,
    "name": "虞城县",
    "level": 3,
    "adcode": "411425",
    "lng": "115.863811",
    "lat": "34.399634"
  },
  {
    "id": 357,
    "pid": 205,
    "name": "新乡市",
    "level": 2,
    "adcode": "410700",
    "lng": "113.883991",
    "lat": "35.302616"
  },
  {
    "id": 358,
    "pid": 357,
    "name": "红旗区",
    "level": 3,
    "adcode": "410702",
    "lng": "113.878158",
    "lat": "35.302684"
  },
  {
    "id": 359,
    "pid": 357,
    "name": "凤泉区",
    "level": 3,
    "adcode": "410704",
    "lng": "113.906712",
    "lat": "35.379855"
  },
  {
    "id": 360,
    "pid": 357,
    "name": "辉县市",
    "level": 3,
    "adcode": "410782",
    "lng": "113.802518",
    "lat": "35.461318"
  },
  {
    "id": 361,
    "pid": 357,
    "name": "获嘉县",
    "level": 3,
    "adcode": "410724",
    "lng": "113.657249",
    "lat": "35.261685"
  },
  {
    "id": 362,
    "pid": 357,
    "name": "卫辉市",
    "level": 3,
    "adcode": "410781",
    "lng": "114.065855",
    "lat": "35.404295"
  },
  {
    "id": 363,
    "pid": 357,
    "name": "延津县",
    "level": 3,
    "adcode": "410726",
    "lng": "114.200982",
    "lat": "35.149515"
  },
  {
    "id": 364,
    "pid": 357,
    "name": "封丘县",
    "level": 3,
    "adcode": "410727",
    "lng": "114.423405",
    "lat": "35.04057"
  },
  {
    "id": 365,
    "pid": 357,
    "name": "原阳县",
    "level": 3,
    "adcode": "410725",
    "lng": "113.965966",
    "lat": "35.054001"
  },
  {
    "id": 366,
    "pid": 357,
    "name": "长垣县",
    "level": 3,
    "adcode": "410728",
    "lng": "114.673807",
    "lat": "35.19615"
  },
  {
    "id": 367,
    "pid": 357,
    "name": "新乡县",
    "level": 3,
    "adcode": "410721",
    "lng": "113.806186",
    "lat": "35.190021"
  },
  {
    "id": 368,
    "pid": 357,
    "name": "卫滨区",
    "level": 3,
    "adcode": "410703",
    "lng": "113.866065",
    "lat": "35.304905"
  },
  {
    "id": 369,
    "pid": 357,
    "name": "牧野区",
    "level": 3,
    "adcode": "410711",
    "lng": "113.89716",
    "lat": "35.312974"
  },
  {
    "id": 370,
    "pid": 205,
    "name": "鹤壁市",
    "level": 2,
    "adcode": "410600",
    "lng": "114.295444",
    "lat": "35.748236"
  },
  {
    "id": 371,
    "pid": 370,
    "name": "淇滨区",
    "level": 3,
    "adcode": "410611",
    "lng": "114.293917",
    "lat": "35.748382"
  },
  {
    "id": 372,
    "pid": 370,
    "name": "鹤山区",
    "level": 3,
    "adcode": "410602",
    "lng": "114.166551",
    "lat": "35.936128"
  },
  {
    "id": 373,
    "pid": 370,
    "name": "浚县",
    "level": 3,
    "adcode": "410621",
    "lng": "114.550162",
    "lat": "35.671282"
  },
  {
    "id": 374,
    "pid": 370,
    "name": "淇县",
    "level": 3,
    "adcode": "410622",
    "lng": "114.200379",
    "lat": "35.609478"
  },
  {
    "id": 375,
    "pid": 370,
    "name": "山城区",
    "level": 3,
    "adcode": "410603",
    "lng": "114.184202",
    "lat": "35.896058"
  },
  {
    "id": 376,
    "pid": 205,
    "name": "周口市",
    "level": 2,
    "adcode": "411600",
    "lng": "114.649653",
    "lat": "33.620357"
  },
  {
    "id": 377,
    "pid": 376,
    "name": "太康县",
    "level": 3,
    "adcode": "411627",
    "lng": "114.853834",
    "lat": "34.065312"
  },
  {
    "id": 378,
    "pid": 376,
    "name": "鹿邑县",
    "level": 3,
    "adcode": "411628",
    "lng": "115.486386",
    "lat": "33.861067"
  },
  {
    "id": 379,
    "pid": 376,
    "name": "西华县",
    "level": 3,
    "adcode": "411622",
    "lng": "114.530067",
    "lat": "33.784378"
  },
  {
    "id": 380,
    "pid": 376,
    "name": "郸城县",
    "level": 3,
    "adcode": "411625",
    "lng": "115.189",
    "lat": "33.643852"
  },
  {
    "id": 381,
    "pid": 376,
    "name": "沈丘县",
    "level": 3,
    "adcode": "411624",
    "lng": "115.078375",
    "lat": "33.395514"
  },
  {
    "id": 382,
    "pid": 376,
    "name": "项城市",
    "level": 3,
    "adcode": "411681",
    "lng": "114.899521",
    "lat": "33.443085"
  },
  {
    "id": 383,
    "pid": 376,
    "name": "扶沟县",
    "level": 3,
    "adcode": "411621",
    "lng": "114.392008",
    "lat": "34.054061"
  },
  {
    "id": 384,
    "pid": 376,
    "name": "淮阳县",
    "level": 3,
    "adcode": "411626",
    "lng": "114.870166",
    "lat": "33.732547"
  },
  {
    "id": 385,
    "pid": 376,
    "name": "川汇区",
    "level": 3,
    "adcode": "411602",
    "lng": "114.652136",
    "lat": "33.614836"
  },
  {
    "id": 386,
    "pid": 376,
    "name": "商水县",
    "level": 3,
    "adcode": "411623",
    "lng": "114.60927",
    "lat": "33.543845"
  },
  {
    "id": 387,
    "pid": 205,
    "name": "开封市",
    "level": 2,
    "adcode": "410200",
    "lng": "114.341447",
    "lat": "34.797049"
  },
  {
    "id": 388,
    "pid": 387,
    "name": "兰考县",
    "level": 3,
    "adcode": "410225",
    "lng": "114.820572",
    "lat": "34.829899"
  },
  {
    "id": 389,
    "pid": 387,
    "name": "祥符区",
    "level": 3,
    "adcode": "410212",
    "lng": "114.437622",
    "lat": "34.756476"
  },
  {
    "id": 390,
    "pid": 387,
    "name": "鼓楼区",
    "level": 3,
    "adcode": "410204",
    "lng": "114.3485",
    "lat": "34.792383"
  },
  {
    "id": 391,
    "pid": 387,
    "name": "顺河回族区",
    "level": 3,
    "adcode": "410203",
    "lng": "114.364875",
    "lat": "34.800459"
  },
  {
    "id": 392,
    "pid": 387,
    "name": "禹王台区",
    "level": 3,
    "adcode": "410205",
    "lng": "114.350246",
    "lat": "34.779727"
  },
  {
    "id": 393,
    "pid": 387,
    "name": "杞县",
    "level": 3,
    "adcode": "410221",
    "lng": "114.770472",
    "lat": "34.554585"
  },
  {
    "id": 394,
    "pid": 387,
    "name": "龙亭区",
    "level": 3,
    "adcode": "410202",
    "lng": "114.353348",
    "lat": "34.799833"
  },
  {
    "id": 395,
    "pid": 387,
    "name": "尉氏县",
    "level": 3,
    "adcode": "410223",
    "lng": "114.193927",
    "lat": "34.412256"
  },
  {
    "id": 396,
    "pid": 387,
    "name": "通许县",
    "level": 3,
    "adcode": "410222",
    "lng": "114.467734",
    "lat": "34.477302"
  },
  {
    "id": 397,
    "pid": 0,
    "name": "内蒙古自治区",
    "level": 1,
    "adcode": "150000",
    "lng": "111.670801",
    "lat": "40.818311"
  },
  {
    "id": 398,
    "pid": 397,
    "name": "乌海市",
    "level": 2,
    "adcode": "150300",
    "lng": "106.825563",
    "lat": "39.673734"
  },
  {
    "id": 399,
    "pid": 398,
    "name": "乌达区",
    "level": 3,
    "adcode": "150304",
    "lng": "106.722711",
    "lat": "39.502288"
  },
  {
    "id": 400,
    "pid": 398,
    "name": "海勃湾区",
    "level": 3,
    "adcode": "150302",
    "lng": "106.817762",
    "lat": "39.673527"
  },
  {
    "id": 401,
    "pid": 398,
    "name": "海南区",
    "level": 3,
    "adcode": "150303",
    "lng": "106.884789",
    "lat": "39.44153"
  },
  {
    "id": 402,
    "pid": 397,
    "name": "巴彦淖尔市",
    "level": 2,
    "adcode": "150800",
    "lng": "107.416959",
    "lat": "40.757402"
  },
  {
    "id": 403,
    "pid": 402,
    "name": "乌拉特中旗",
    "level": 3,
    "adcode": "150824",
    "lng": "108.515255",
    "lat": "41.57254"
  },
  {
    "id": 404,
    "pid": 402,
    "name": "五原县",
    "level": 3,
    "adcode": "150821",
    "lng": "108.270658",
    "lat": "41.097639"
  },
  {
    "id": 405,
    "pid": 402,
    "name": "临河区",
    "level": 3,
    "adcode": "150802",
    "lng": "107.417018",
    "lat": "40.757092"
  },
  {
    "id": 406,
    "pid": 402,
    "name": "磴口县",
    "level": 3,
    "adcode": "150822",
    "lng": "107.006056",
    "lat": "40.330479"
  },
  {
    "id": 407,
    "pid": 402,
    "name": "杭锦后旗",
    "level": 3,
    "adcode": "150826",
    "lng": "107.147682",
    "lat": "40.888797"
  },
  {
    "id": 408,
    "pid": 402,
    "name": "乌拉特后旗",
    "level": 3,
    "adcode": "150825",
    "lng": "107.074941",
    "lat": "41.084307"
  },
  {
    "id": 409,
    "pid": 402,
    "name": "乌拉特前旗",
    "level": 3,
    "adcode": "150823",
    "lng": "108.656816",
    "lat": "40.725209"
  },
  {
    "id": 410,
    "pid": 397,
    "name": "呼伦贝尔市",
    "level": 2,
    "adcode": "150700",
    "lng": "119.758168",
    "lat": "49.215333"
  },
  {
    "id": 411,
    "pid": 410,
    "name": "额尔古纳市",
    "level": 3,
    "adcode": "150784",
    "lng": "120.178636",
    "lat": "50.2439"
  },
  {
    "id": 412,
    "pid": 410,
    "name": "海拉尔区",
    "level": 3,
    "adcode": "150702",
    "lng": "119.764923",
    "lat": "49.213889"
  },
  {
    "id": 413,
    "pid": 410,
    "name": "陈巴尔虎旗",
    "level": 3,
    "adcode": "150725",
    "lng": "119.437609",
    "lat": "49.328422"
  },
  {
    "id": 414,
    "pid": 410,
    "name": "阿荣旗",
    "level": 3,
    "adcode": "150721",
    "lng": "123.464615",
    "lat": "48.130503"
  },
  {
    "id": 415,
    "pid": 410,
    "name": "鄂温克族自治旗",
    "level": 3,
    "adcode": "150724",
    "lng": "119.754041",
    "lat": "49.143293"
  },
  {
    "id": 416,
    "pid": 410,
    "name": "根河市",
    "level": 3,
    "adcode": "150785",
    "lng": "121.532724",
    "lat": "50.780454"
  },
  {
    "id": 417,
    "pid": 410,
    "name": "牙克石市",
    "level": 3,
    "adcode": "150782",
    "lng": "120.729005",
    "lat": "49.287024"
  },
  {
    "id": 418,
    "pid": 410,
    "name": "扎兰屯市",
    "level": 3,
    "adcode": "150783",
    "lng": "122.744401",
    "lat": "48.007412"
  },
  {
    "id": 419,
    "pid": 410,
    "name": "莫力达瓦达斡尔族自治旗",
    "level": 3,
    "adcode": "150722",
    "lng": "124.507401",
    "lat": "48.478385"
  },
  {
    "id": 420,
    "pid": 410,
    "name": "满洲里市",
    "level": 3,
    "adcode": "150781",
    "lng": "117.455561",
    "lat": "49.590788"
  },
  {
    "id": 421,
    "pid": 410,
    "name": "新巴尔虎左旗",
    "level": 3,
    "adcode": "150726",
    "lng": "118.267454",
    "lat": "48.216571"
  },
  {
    "id": 422,
    "pid": 410,
    "name": "扎赉诺尔区",
    "level": 3,
    "adcode": "150703",
    "lng": "117.716373",
    "lat": "49.456567"
  },
  {
    "id": 423,
    "pid": 410,
    "name": "新巴尔虎右旗",
    "level": 3,
    "adcode": "150727",
    "lng": "116.825991",
    "lat": "48.669134"
  },
  {
    "id": 424,
    "pid": 410,
    "name": "鄂伦春自治旗",
    "level": 3,
    "adcode": "150723",
    "lng": "123.725684",
    "lat": "50.590177"
  },
  {
    "id": 425,
    "pid": 397,
    "name": "鄂尔多斯市",
    "level": 2,
    "adcode": "150600",
    "lng": "109.99029",
    "lat": "39.817179"
  },
  {
    "id": 426,
    "pid": 425,
    "name": "准格尔旗",
    "level": 3,
    "adcode": "150622",
    "lng": "111.238332",
    "lat": "39.865221"
  },
  {
    "id": 427,
    "pid": 425,
    "name": "鄂托克旗",
    "level": 3,
    "adcode": "150624",
    "lng": "107.982604",
    "lat": "39.095752"
  },
  {
    "id": 428,
    "pid": 425,
    "name": "杭锦旗",
    "level": 3,
    "adcode": "150625",
    "lng": "108.736324",
    "lat": "39.831789"
  },
  {
    "id": 429,
    "pid": 425,
    "name": "达拉特旗",
    "level": 3,
    "adcode": "150621",
    "lng": "110.040281",
    "lat": "40.404076"
  },
  {
    "id": 430,
    "pid": 425,
    "name": "乌审旗",
    "level": 3,
    "adcode": "150626",
    "lng": "108.842454",
    "lat": "38.596611"
  },
  {
    "id": 431,
    "pid": 425,
    "name": "鄂托克前旗",
    "level": 3,
    "adcode": "150623",
    "lng": "107.48172",
    "lat": "38.183257"
  },
  {
    "id": 432,
    "pid": 425,
    "name": "康巴什区",
    "level": 3,
    "adcode": "150603",
    "lng": "109.790076",
    "lat": "39.607472"
  },
  {
    "id": 433,
    "pid": 425,
    "name": "东胜区",
    "level": 3,
    "adcode": "150602",
    "lng": "109.98945",
    "lat": "39.81788"
  },
  {
    "id": 434,
    "pid": 425,
    "name": "伊金霍洛旗",
    "level": 3,
    "adcode": "150627",
    "lng": "109.787402",
    "lat": "39.604312"
  },
  {
    "id": 435,
    "pid": 397,
    "name": "包头市",
    "level": 2,
    "adcode": "150200",
    "lng": "109.840405",
    "lat": "40.658168"
  },
  {
    "id": 436,
    "pid": 435,
    "name": "土默特右旗",
    "level": 3,
    "adcode": "150221",
    "lng": "110.526766",
    "lat": "40.566434"
  },
  {
    "id": 437,
    "pid": 435,
    "name": "达尔罕茂明安联合旗",
    "level": 3,
    "adcode": "150223",
    "lng": "110.438452",
    "lat": "41.702836"
  },
  {
    "id": 438,
    "pid": 435,
    "name": "白云鄂博矿区",
    "level": 3,
    "adcode": "150206",
    "lng": "109.97016",
    "lat": "41.769246"
  },
  {
    "id": 439,
    "pid": 435,
    "name": "东河区",
    "level": 3,
    "adcode": "150202",
    "lng": "110.026895",
    "lat": "40.587056"
  },
  {
    "id": 440,
    "pid": 435,
    "name": "九原区",
    "level": 3,
    "adcode": "150207",
    "lng": "109.968122",
    "lat": "40.600581"
  },
  {
    "id": 441,
    "pid": 435,
    "name": "固阳县",
    "level": 3,
    "adcode": "150222",
    "lng": "110.063421",
    "lat": "41.030004"
  },
  {
    "id": 442,
    "pid": 435,
    "name": "昆都仑区",
    "level": 3,
    "adcode": "150203",
    "lng": "109.822932",
    "lat": "40.661345"
  },
  {
    "id": 443,
    "pid": 435,
    "name": "石拐区",
    "level": 3,
    "adcode": "150205",
    "lng": "110.272565",
    "lat": "40.672094"
  },
  {
    "id": 444,
    "pid": 435,
    "name": "青山区",
    "level": 3,
    "adcode": "150204",
    "lng": "109.880049",
    "lat": "40.668558"
  },
  {
    "id": 445,
    "pid": 397,
    "name": "呼和浩特市",
    "level": 2,
    "adcode": "150100",
    "lng": "111.670801",
    "lat": "40.818311"
  },
  {
    "id": 446,
    "pid": 445,
    "name": "和林格尔县",
    "level": 3,
    "adcode": "150123",
    "lng": "111.824143",
    "lat": "40.380288"
  },
  {
    "id": 447,
    "pid": 445,
    "name": "玉泉区",
    "level": 3,
    "adcode": "150104",
    "lng": "111.66543",
    "lat": "40.799421"
  },
  {
    "id": 448,
    "pid": 445,
    "name": "清水河县",
    "level": 3,
    "adcode": "150124",
    "lng": "111.67222",
    "lat": "39.912479"
  },
  {
    "id": 449,
    "pid": 445,
    "name": "回民区",
    "level": 3,
    "adcode": "150103",
    "lng": "111.662162",
    "lat": "40.815149"
  },
  {
    "id": 450,
    "pid": 445,
    "name": "托克托县",
    "level": 3,
    "adcode": "150122",
    "lng": "111.197317",
    "lat": "40.276729"
  },
  {
    "id": 451,
    "pid": 445,
    "name": "武川县",
    "level": 3,
    "adcode": "150125",
    "lng": "111.456563",
    "lat": "41.094483"
  },
  {
    "id": 452,
    "pid": 445,
    "name": "土默特左旗",
    "level": 3,
    "adcode": "150121",
    "lng": "111.133615",
    "lat": "40.720416"
  },
  {
    "id": 453,
    "pid": 445,
    "name": "新城区",
    "level": 3,
    "adcode": "150102",
    "lng": "111.685964",
    "lat": "40.826225"
  },
  {
    "id": 454,
    "pid": 445,
    "name": "赛罕区",
    "level": 3,
    "adcode": "150105",
    "lng": "111.698463",
    "lat": "40.807834"
  },
  {
    "id": 455,
    "pid": 397,
    "name": "通辽市",
    "level": 2,
    "adcode": "150500",
    "lng": "122.263119",
    "lat": "43.617429"
  },
  {
    "id": 456,
    "pid": 455,
    "name": "霍林郭勒市",
    "level": 3,
    "adcode": "150581",
    "lng": "119.657862",
    "lat": "45.532361"
  },
  {
    "id": 457,
    "pid": 455,
    "name": "扎鲁特旗",
    "level": 3,
    "adcode": "150526",
    "lng": "120.905275",
    "lat": "44.555294"
  },
  {
    "id": 458,
    "pid": 455,
    "name": "科尔沁左翼中旗",
    "level": 3,
    "adcode": "150521",
    "lng": "123.313873",
    "lat": "44.127166"
  },
  {
    "id": 459,
    "pid": 455,
    "name": "科尔沁区",
    "level": 3,
    "adcode": "150502",
    "lng": "122.264042",
    "lat": "43.617422"
  },
  {
    "id": 460,
    "pid": 455,
    "name": "奈曼旗",
    "level": 3,
    "adcode": "150525",
    "lng": "120.662543",
    "lat": "42.84685"
  },
  {
    "id": 461,
    "pid": 455,
    "name": "开鲁县",
    "level": 3,
    "adcode": "150523",
    "lng": "121.308797",
    "lat": "43.602432"
  },
  {
    "id": 462,
    "pid": 455,
    "name": "库伦旗",
    "level": 3,
    "adcode": "150524",
    "lng": "121.774886",
    "lat": "42.734692"
  },
  {
    "id": 463,
    "pid": 455,
    "name": "科尔沁左翼后旗",
    "level": 3,
    "adcode": "150522",
    "lng": "122.355155",
    "lat": "42.954564"
  },
  {
    "id": 464,
    "pid": 397,
    "name": "赤峰市",
    "level": 2,
    "adcode": "150400",
    "lng": "118.956806",
    "lat": "42.275317"
  },
  {
    "id": 465,
    "pid": 464,
    "name": "阿鲁科尔沁旗",
    "level": 3,
    "adcode": "150421",
    "lng": "120.094969",
    "lat": "43.87877"
  },
  {
    "id": 466,
    "pid": 464,
    "name": "林西县",
    "level": 3,
    "adcode": "150424",
    "lng": "118.05775",
    "lat": "43.605326"
  },
  {
    "id": 467,
    "pid": 464,
    "name": "巴林左旗",
    "level": 3,
    "adcode": "150422",
    "lng": "119.391737",
    "lat": "43.980715"
  },
  {
    "id": 468,
    "pid": 464,
    "name": "巴林右旗",
    "level": 3,
    "adcode": "150423",
    "lng": "118.678347",
    "lat": "43.528963"
  },
  {
    "id": 469,
    "pid": 464,
    "name": "克什克腾旗",
    "level": 3,
    "adcode": "150425",
    "lng": "117.542465",
    "lat": "43.256233"
  },
  {
    "id": 470,
    "pid": 464,
    "name": "翁牛特旗",
    "level": 3,
    "adcode": "150426",
    "lng": "119.022619",
    "lat": "42.937128"
  },
  {
    "id": 471,
    "pid": 464,
    "name": "松山区",
    "level": 3,
    "adcode": "150404",
    "lng": "118.938958",
    "lat": "42.281046"
  },
  {
    "id": 472,
    "pid": 464,
    "name": "宁城县",
    "level": 3,
    "adcode": "150429",
    "lng": "119.339242",
    "lat": "41.598692"
  },
  {
    "id": 473,
    "pid": 464,
    "name": "红山区",
    "level": 3,
    "adcode": "150402",
    "lng": "118.961087",
    "lat": "42.269732"
  },
  {
    "id": 474,
    "pid": 464,
    "name": "元宝山区",
    "level": 3,
    "adcode": "150403",
    "lng": "119.289877",
    "lat": "42.041168"
  },
  {
    "id": 475,
    "pid": 464,
    "name": "喀喇沁旗",
    "level": 3,
    "adcode": "150428",
    "lng": "118.708572",
    "lat": "41.92778"
  },
  {
    "id": 476,
    "pid": 464,
    "name": "敖汉旗",
    "level": 3,
    "adcode": "150430",
    "lng": "119.906486",
    "lat": "42.287012"
  },
  {
    "id": 477,
    "pid": 397,
    "name": "阿拉善盟",
    "level": 2,
    "adcode": "152900",
    "lng": "105.706422",
    "lat": "38.844814"
  },
  {
    "id": 478,
    "pid": 477,
    "name": "额济纳旗",
    "level": 3,
    "adcode": "152923",
    "lng": "101.06944",
    "lat": "41.958813"
  },
  {
    "id": 479,
    "pid": 477,
    "name": "阿拉善右旗",
    "level": 3,
    "adcode": "152922",
    "lng": "101.671984",
    "lat": "39.21159"
  },
  {
    "id": 480,
    "pid": 477,
    "name": "阿拉善左旗",
    "level": 3,
    "adcode": "152921",
    "lng": "105.70192",
    "lat": "38.847241"
  },
  {
    "id": 481,
    "pid": 397,
    "name": "兴安盟",
    "level": 2,
    "adcode": "152200",
    "lng": "122.070317",
    "lat": "46.076268"
  },
  {
    "id": 482,
    "pid": 481,
    "name": "阿尔山市",
    "level": 3,
    "adcode": "152202",
    "lng": "119.943656",
    "lat": "47.177"
  },
  {
    "id": 483,
    "pid": 481,
    "name": "扎赉特旗",
    "level": 3,
    "adcode": "152223",
    "lng": "122.909332",
    "lat": "46.725136"
  },
  {
    "id": 484,
    "pid": 481,
    "name": "突泉县",
    "level": 3,
    "adcode": "152224",
    "lng": "121.564856",
    "lat": "45.380986"
  },
  {
    "id": 485,
    "pid": 481,
    "name": "科尔沁右翼中旗",
    "level": 3,
    "adcode": "152222",
    "lng": "121.472818",
    "lat": "45.059645"
  },
  {
    "id": 486,
    "pid": 481,
    "name": "乌兰浩特市",
    "level": 3,
    "adcode": "152201",
    "lng": "122.068975",
    "lat": "46.077238"
  },
  {
    "id": 487,
    "pid": 481,
    "name": "科尔沁右翼前旗",
    "level": 3,
    "adcode": "152221",
    "lng": "121.957544",
    "lat": "46.076497"
  },
  {
    "id": 488,
    "pid": 397,
    "name": "锡林郭勒盟",
    "level": 2,
    "adcode": "152500",
    "lng": "116.090996",
    "lat": "43.944018"
  },
  {
    "id": 489,
    "pid": 488,
    "name": "东乌珠穆沁旗",
    "level": 3,
    "adcode": "152525",
    "lng": "116.980022",
    "lat": "45.510307"
  },
  {
    "id": 490,
    "pid": 488,
    "name": "阿巴嘎旗",
    "level": 3,
    "adcode": "152522",
    "lng": "114.970618",
    "lat": "44.022728"
  },
  {
    "id": 491,
    "pid": 488,
    "name": "西乌珠穆沁旗",
    "level": 3,
    "adcode": "152526",
    "lng": "117.615249",
    "lat": "44.586147"
  },
  {
    "id": 492,
    "pid": 488,
    "name": "锡林浩特市",
    "level": 3,
    "adcode": "152502",
    "lng": "116.091903",
    "lat": "43.944301"
  },
  {
    "id": 493,
    "pid": 488,
    "name": "苏尼特左旗",
    "level": 3,
    "adcode": "152523",
    "lng": "113.653412",
    "lat": "43.854108"
  },
  {
    "id": 494,
    "pid": 488,
    "name": "苏尼特右旗",
    "level": 3,
    "adcode": "152524",
    "lng": "112.65539",
    "lat": "42.746662"
  },
  {
    "id": 495,
    "pid": 488,
    "name": "二连浩特市",
    "level": 3,
    "adcode": "152501",
    "lng": "111.97981",
    "lat": "43.652895"
  },
  {
    "id": 496,
    "pid": 488,
    "name": "镶黄旗",
    "level": 3,
    "adcode": "152528",
    "lng": "113.843869",
    "lat": "42.239229"
  },
  {
    "id": 497,
    "pid": 488,
    "name": "正蓝旗",
    "level": 3,
    "adcode": "152530",
    "lng": "116.003311",
    "lat": "42.245895"
  },
  {
    "id": 498,
    "pid": 488,
    "name": "正镶白旗",
    "level": 3,
    "adcode": "152529",
    "lng": "115.031423",
    "lat": "42.286807"
  },
  {
    "id": 499,
    "pid": 488,
    "name": "多伦县",
    "level": 3,
    "adcode": "152531",
    "lng": "116.477288",
    "lat": "42.197962"
  },
  {
    "id": 500,
    "pid": 488,
    "name": "太仆寺旗",
    "level": 3,
    "adcode": "152527",
    "lng": "115.28728",
    "lat": "41.895199"
  },
  {
    "id": 501,
    "pid": 397,
    "name": "乌兰察布市",
    "level": 2,
    "adcode": "150900",
    "lng": "113.114543",
    "lat": "41.034126"
  },
  {
    "id": 502,
    "pid": 501,
    "name": "四子王旗",
    "level": 3,
    "adcode": "150929",
    "lng": "111.70123",
    "lat": "41.528114"
  },
  {
    "id": 503,
    "pid": 501,
    "name": "察哈尔右翼后旗",
    "level": 3,
    "adcode": "150928",
    "lng": "113.1906",
    "lat": "41.447213"
  },
  {
    "id": 504,
    "pid": 501,
    "name": "商都县",
    "level": 3,
    "adcode": "150923",
    "lng": "113.560643",
    "lat": "41.560163"
  },
  {
    "id": 505,
    "pid": 501,
    "name": "察哈尔右翼中旗",
    "level": 3,
    "adcode": "150927",
    "lng": "112.633563",
    "lat": "41.274212"
  },
  {
    "id": 506,
    "pid": 501,
    "name": "化德县",
    "level": 3,
    "adcode": "150922",
    "lng": "114.01008",
    "lat": "41.899335"
  },
  {
    "id": 507,
    "pid": 501,
    "name": "兴和县",
    "level": 3,
    "adcode": "150924",
    "lng": "113.834009",
    "lat": "40.872437"
  },
  {
    "id": 508,
    "pid": 501,
    "name": "卓资县",
    "level": 3,
    "adcode": "150921",
    "lng": "112.577702",
    "lat": "40.89576"
  },
  {
    "id": 509,
    "pid": 501,
    "name": "凉城县",
    "level": 3,
    "adcode": "150925",
    "lng": "112.500911",
    "lat": "40.531627"
  },
  {
    "id": 510,
    "pid": 501,
    "name": "丰镇市",
    "level": 3,
    "adcode": "150981",
    "lng": "113.163462",
    "lat": "40.437534"
  },
  {
    "id": 511,
    "pid": 501,
    "name": "集宁区",
    "level": 3,
    "adcode": "150902",
    "lng": "113.116453",
    "lat": "41.034134"
  },
  {
    "id": 512,
    "pid": 501,
    "name": "察哈尔右翼前旗",
    "level": 3,
    "adcode": "150926",
    "lng": "113.211958",
    "lat": "40.786859"
  },
  {
    "id": 513,
    "pid": 0,
    "name": "黑龙江省",
    "level": 1,
    "adcode": "230000",
    "lng": "126.642464",
    "lat": "45.756967"
  },
  {
    "id": 514,
    "pid": 513,
    "name": "大兴安岭地区",
    "level": 2,
    "adcode": "232700",
    "lng": "124.711526",
    "lat": "52.335262"
  },
  {
    "id": 515,
    "pid": 514,
    "name": "漠河县",
    "level": 3,
    "adcode": "232723",
    "lng": "122.536256",
    "lat": "52.972074"
  },
  {
    "id": 516,
    "pid": 514,
    "name": "呼玛县",
    "level": 3,
    "adcode": "232721",
    "lng": "126.662105",
    "lat": "51.726998"
  },
  {
    "id": 517,
    "pid": 514,
    "name": "塔河县",
    "level": 3,
    "adcode": "232722",
    "lng": "124.710516",
    "lat": "52.335229"
  },
  {
    "id": 518,
    "pid": 514,
    "name": "加格达奇区",
    "level": 3,
    "adcode": "232701",
    "lng": "124.126716",
    "lat": "50.424654"
  },
  {
    "id": 519,
    "pid": 513,
    "name": "七台河市",
    "level": 2,
    "adcode": "230900",
    "lng": "131.015584",
    "lat": "45.771266"
  },
  {
    "id": 520,
    "pid": 519,
    "name": "勃利县",
    "level": 3,
    "adcode": "230921",
    "lng": "130.575025",
    "lat": "45.751573"
  },
  {
    "id": 521,
    "pid": 519,
    "name": "茄子河区",
    "level": 3,
    "adcode": "230904",
    "lng": "131.071561",
    "lat": "45.776587"
  },
  {
    "id": 522,
    "pid": 519,
    "name": "新兴区",
    "level": 3,
    "adcode": "230902",
    "lng": "130.889482",
    "lat": "45.794258"
  },
  {
    "id": 523,
    "pid": 519,
    "name": "桃山区",
    "level": 3,
    "adcode": "230903",
    "lng": "131.015848",
    "lat": "45.771217"
  },
  {
    "id": 524,
    "pid": 513,
    "name": "大庆市",
    "level": 2,
    "adcode": "230600",
    "lng": "125.11272",
    "lat": "46.590734"
  },
  {
    "id": 525,
    "pid": 524,
    "name": "让胡路区",
    "level": 3,
    "adcode": "230604",
    "lng": "124.868341",
    "lat": "46.653254"
  },
  {
    "id": 526,
    "pid": 524,
    "name": "红岗区",
    "level": 3,
    "adcode": "230605",
    "lng": "124.889528",
    "lat": "46.403049"
  },
  {
    "id": 527,
    "pid": 524,
    "name": "肇源县",
    "level": 3,
    "adcode": "230622",
    "lng": "125.081974",
    "lat": "45.518832"
  },
  {
    "id": 528,
    "pid": 524,
    "name": "大同区",
    "level": 3,
    "adcode": "230606",
    "lng": "124.818509",
    "lat": "46.034304"
  },
  {
    "id": 529,
    "pid": 524,
    "name": "林甸县",
    "level": 3,
    "adcode": "230623",
    "lng": "124.877742",
    "lat": "47.186411"
  },
  {
    "id": 530,
    "pid": 524,
    "name": "杜尔伯特蒙古族自治县",
    "level": 3,
    "adcode": "230624",
    "lng": "124.446259",
    "lat": "46.865973"
  },
  {
    "id": 531,
    "pid": 524,
    "name": "肇州县",
    "level": 3,
    "adcode": "230621",
    "lng": "125.273254",
    "lat": "45.708685"
  },
  {
    "id": 532,
    "pid": 524,
    "name": "龙凤区",
    "level": 3,
    "adcode": "230603",
    "lng": "125.145794",
    "lat": "46.573948"
  },
  {
    "id": 533,
    "pid": 524,
    "name": "萨尔图区",
    "level": 3,
    "adcode": "230602",
    "lng": "125.114643",
    "lat": "46.596356"
  },
  {
    "id": 534,
    "pid": 513,
    "name": "鹤岗市",
    "level": 2,
    "adcode": "230400",
    "lng": "130.277487",
    "lat": "47.332085"
  },
  {
    "id": 535,
    "pid": 534,
    "name": "萝北县",
    "level": 3,
    "adcode": "230421",
    "lng": "130.829087",
    "lat": "47.577577"
  },
  {
    "id": 536,
    "pid": 534,
    "name": "绥滨县",
    "level": 3,
    "adcode": "230422",
    "lng": "131.860526",
    "lat": "47.289892"
  },
  {
    "id": 537,
    "pid": 534,
    "name": "工农区",
    "level": 3,
    "adcode": "230403",
    "lng": "130.276652",
    "lat": "47.331678"
  },
  {
    "id": 538,
    "pid": 534,
    "name": "向阳区",
    "level": 3,
    "adcode": "230402",
    "lng": "130.292478",
    "lat": "47.345372"
  },
  {
    "id": 539,
    "pid": 534,
    "name": "东山区",
    "level": 3,
    "adcode": "230406",
    "lng": "130.31714",
    "lat": "47.337385"
  },
  {
    "id": 540,
    "pid": 534,
    "name": "兴山区",
    "level": 3,
    "adcode": "230407",
    "lng": "130.30534",
    "lat": "47.35997"
  },
  {
    "id": 541,
    "pid": 534,
    "name": "南山区",
    "level": 3,
    "adcode": "230404",
    "lng": "130.275533",
    "lat": "47.31324"
  },
  {
    "id": 542,
    "pid": 534,
    "name": "兴安区",
    "level": 3,
    "adcode": "230405",
    "lng": "130.236169",
    "lat": "47.252911"
  },
  {
    "id": 543,
    "pid": 513,
    "name": "伊春市",
    "level": 2,
    "adcode": "230700",
    "lng": "128.899396",
    "lat": "47.724775"
  },
  {
    "id": 544,
    "pid": 543,
    "name": "乌伊岭区",
    "level": 3,
    "adcode": "230714",
    "lng": "129.437847",
    "lat": "48.59112"
  },
  {
    "id": 545,
    "pid": 543,
    "name": "嘉荫县",
    "level": 3,
    "adcode": "230722",
    "lng": "130.397684",
    "lat": "48.891378"
  },
  {
    "id": 546,
    "pid": 543,
    "name": "友好区",
    "level": 3,
    "adcode": "230704",
    "lng": "128.838961",
    "lat": "47.854303"
  },
  {
    "id": 547,
    "pid": 543,
    "name": "红星区",
    "level": 3,
    "adcode": "230715",
    "lng": "129.388796",
    "lat": "48.238368"
  },
  {
    "id": 548,
    "pid": 543,
    "name": "五营区",
    "level": 3,
    "adcode": "230710",
    "lng": "129.245028",
    "lat": "48.108204"
  },
  {
    "id": 549,
    "pid": 543,
    "name": "汤旺河区",
    "level": 3,
    "adcode": "230712",
    "lng": "129.57224",
    "lat": "48.453651"
  },
  {
    "id": 550,
    "pid": 543,
    "name": "新青区",
    "level": 3,
    "adcode": "230707",
    "lng": "129.52995",
    "lat": "48.288292"
  },
  {
    "id": 551,
    "pid": 543,
    "name": "上甘岭区",
    "level": 3,
    "adcode": "230716",
    "lng": "129.02508",
    "lat": "47.974859"
  },
  {
    "id": 552,
    "pid": 543,
    "name": "翠峦区",
    "level": 3,
    "adcode": "230706",
    "lng": "128.671746",
    "lat": "47.726228"
  },
  {
    "id": 553,
    "pid": 543,
    "name": "美溪区",
    "level": 3,
    "adcode": "230708",
    "lng": "129.133411",
    "lat": "47.636102"
  },
  {
    "id": 554,
    "pid": 543,
    "name": "乌马河区",
    "level": 3,
    "adcode": "230711",
    "lng": "128.802941",
    "lat": "47.726961"
  },
  {
    "id": 555,
    "pid": 543,
    "name": "伊春区",
    "level": 3,
    "adcode": "230702",
    "lng": "128.899284",
    "lat": "47.726851"
  },
  {
    "id": 556,
    "pid": 543,
    "name": "金山屯区",
    "level": 3,
    "adcode": "230709",
    "lng": "129.435944",
    "lat": "47.41295"
  },
  {
    "id": 557,
    "pid": 543,
    "name": "铁力市",
    "level": 3,
    "adcode": "230781",
    "lng": "128.030561",
    "lat": "46.985772"
  },
  {
    "id": 558,
    "pid": 543,
    "name": "西林区",
    "level": 3,
    "adcode": "230705",
    "lng": "129.311441",
    "lat": "47.479437"
  },
  {
    "id": 559,
    "pid": 543,
    "name": "带岭区",
    "level": 3,
    "adcode": "230713",
    "lng": "129.021151",
    "lat": "47.027532"
  },
  {
    "id": 560,
    "pid": 543,
    "name": "南岔区",
    "level": 3,
    "adcode": "230703",
    "lng": "129.28246",
    "lat": "47.137314"
  },
  {
    "id": 561,
    "pid": 513,
    "name": "绥化市",
    "level": 2,
    "adcode": "231200",
    "lng": "126.99293",
    "lat": "46.637393"
  },
  {
    "id": 562,
    "pid": 561,
    "name": "绥棱县",
    "level": 3,
    "adcode": "231226",
    "lng": "127.111121",
    "lat": "47.247195"
  },
  {
    "id": 563,
    "pid": 561,
    "name": "海伦市",
    "level": 3,
    "adcode": "231283",
    "lng": "126.969383",
    "lat": "47.460428"
  },
  {
    "id": 564,
    "pid": 561,
    "name": "庆安县",
    "level": 3,
    "adcode": "231224",
    "lng": "127.510024",
    "lat": "46.879203"
  },
  {
    "id": 565,
    "pid": 561,
    "name": "北林区",
    "level": 3,
    "adcode": "231202",
    "lng": "126.990665",
    "lat": "46.634912"
  },
  {
    "id": 566,
    "pid": 561,
    "name": "青冈县",
    "level": 3,
    "adcode": "231223",
    "lng": "126.112268",
    "lat": "46.686596"
  },
  {
    "id": 567,
    "pid": 561,
    "name": "望奎县",
    "level": 3,
    "adcode": "231221",
    "lng": "126.484191",
    "lat": "46.83352"
  },
  {
    "id": 568,
    "pid": 561,
    "name": "安达市",
    "level": 3,
    "adcode": "231281",
    "lng": "125.329926",
    "lat": "46.410614"
  },
  {
    "id": 569,
    "pid": 561,
    "name": "明水县",
    "level": 3,
    "adcode": "231225",
    "lng": "125.907544",
    "lat": "47.183527"
  },
  {
    "id": 570,
    "pid": 561,
    "name": "肇东市",
    "level": 3,
    "adcode": "231282",
    "lng": "125.991402",
    "lat": "46.069471"
  },
  {
    "id": 571,
    "pid": 561,
    "name": "兰西县",
    "level": 3,
    "adcode": "231222",
    "lng": "126.289315",
    "lat": "46.259037"
  },
  {
    "id": 572,
    "pid": 513,
    "name": "佳木斯市",
    "level": 2,
    "adcode": "230800",
    "lng": "130.361634",
    "lat": "46.809606"
  },
  {
    "id": 573,
    "pid": 572,
    "name": "抚远市",
    "level": 3,
    "adcode": "230883",
    "lng": "134.294501",
    "lat": "48.364707"
  },
  {
    "id": 574,
    "pid": 572,
    "name": "同江市",
    "level": 3,
    "adcode": "230881",
    "lng": "132.510119",
    "lat": "47.651131"
  },
  {
    "id": 575,
    "pid": 572,
    "name": "桦川县",
    "level": 3,
    "adcode": "230826",
    "lng": "130.723713",
    "lat": "47.023039"
  },
  {
    "id": 576,
    "pid": 572,
    "name": "桦南县",
    "level": 3,
    "adcode": "230822",
    "lng": "130.570112",
    "lat": "46.240118"
  },
  {
    "id": 577,
    "pid": 572,
    "name": "汤原县",
    "level": 3,
    "adcode": "230828",
    "lng": "129.904463",
    "lat": "46.730048"
  },
  {
    "id": 578,
    "pid": 572,
    "name": "富锦市",
    "level": 3,
    "adcode": "230882",
    "lng": "132.037951",
    "lat": "47.250747"
  },
  {
    "id": 579,
    "pid": 572,
    "name": "东风区",
    "level": 3,
    "adcode": "230805",
    "lng": "130.403297",
    "lat": "46.822476"
  },
  {
    "id": 580,
    "pid": 572,
    "name": "向阳区",
    "level": 3,
    "adcode": "230803",
    "lng": "130.361786",
    "lat": "46.809645"
  },
  {
    "id": 581,
    "pid": 572,
    "name": "前进区",
    "level": 3,
    "adcode": "230804",
    "lng": "130.377684",
    "lat": "46.812345"
  },
  {
    "id": 582,
    "pid": 572,
    "name": "郊区",
    "level": 3,
    "adcode": "230811",
    "lng": "130.351588",
    "lat": "46.80712"
  },
  {
    "id": 583,
    "pid": 513,
    "name": "齐齐哈尔市",
    "level": 2,
    "adcode": "230200",
    "lng": "123.95792",
    "lat": "47.342081"
  },
  {
    "id": 584,
    "pid": 583,
    "name": "讷河市",
    "level": 3,
    "adcode": "230281",
    "lng": "124.882172",
    "lat": "48.481133"
  },
  {
    "id": 585,
    "pid": 583,
    "name": "克山县",
    "level": 3,
    "adcode": "230229",
    "lng": "125.874355",
    "lat": "48.034342"
  },
  {
    "id": 586,
    "pid": 583,
    "name": "甘南县",
    "level": 3,
    "adcode": "230225",
    "lng": "123.506034",
    "lat": "47.917838"
  },
  {
    "id": 587,
    "pid": 583,
    "name": "克东县",
    "level": 3,
    "adcode": "230230",
    "lng": "126.249094",
    "lat": "48.03732"
  },
  {
    "id": 588,
    "pid": 583,
    "name": "富裕县",
    "level": 3,
    "adcode": "230227",
    "lng": "124.469106",
    "lat": "47.797172"
  },
  {
    "id": 589,
    "pid": 583,
    "name": "依安县",
    "level": 3,
    "adcode": "230223",
    "lng": "125.307561",
    "lat": "47.890098"
  },
  {
    "id": 590,
    "pid": 583,
    "name": "梅里斯达斡尔族区",
    "level": 3,
    "adcode": "230208",
    "lng": "123.754599",
    "lat": "47.311113"
  },
  {
    "id": 591,
    "pid": 583,
    "name": "龙江县",
    "level": 3,
    "adcode": "230221",
    "lng": "123.187225",
    "lat": "47.336388"
  },
  {
    "id": 592,
    "pid": 583,
    "name": "碾子山区",
    "level": 3,
    "adcode": "230207",
    "lng": "122.887972",
    "lat": "47.51401"
  },
  {
    "id": 593,
    "pid": 583,
    "name": "龙沙区",
    "level": 3,
    "adcode": "230202",
    "lng": "123.957338",
    "lat": "47.341736"
  },
  {
    "id": 594,
    "pid": 583,
    "name": "富拉尔基区",
    "level": 3,
    "adcode": "230206",
    "lng": "123.638873",
    "lat": "47.20697"
  },
  {
    "id": 595,
    "pid": 583,
    "name": "铁锋区",
    "level": 3,
    "adcode": "230204",
    "lng": "123.973555",
    "lat": "47.339499"
  },
  {
    "id": 596,
    "pid": 583,
    "name": "昂昂溪区",
    "level": 3,
    "adcode": "230205",
    "lng": "123.813181",
    "lat": "47.156867"
  },
  {
    "id": 597,
    "pid": 583,
    "name": "建华区",
    "level": 3,
    "adcode": "230203",
    "lng": "123.955888",
    "lat": "47.354494"
  },
  {
    "id": 598,
    "pid": 583,
    "name": "泰来县",
    "level": 3,
    "adcode": "230224",
    "lng": "123.41953",
    "lat": "46.39233"
  },
  {
    "id": 599,
    "pid": 583,
    "name": "拜泉县",
    "level": 3,
    "adcode": "230231",
    "lng": "126.091911",
    "lat": "47.607363"
  },
  {
    "id": 600,
    "pid": 513,
    "name": "鸡西市",
    "level": 2,
    "adcode": "230300",
    "lng": "130.975966",
    "lat": "45.300046"
  },
  {
    "id": 601,
    "pid": 600,
    "name": "虎林市",
    "level": 3,
    "adcode": "230381",
    "lng": "132.973881",
    "lat": "45.767985"
  },
  {
    "id": 602,
    "pid": 600,
    "name": "城子河区",
    "level": 3,
    "adcode": "230306",
    "lng": "131.010501",
    "lat": "45.338248"
  },
  {
    "id": 603,
    "pid": 600,
    "name": "滴道区",
    "level": 3,
    "adcode": "230304",
    "lng": "130.846823",
    "lat": "45.348812"
  },
  {
    "id": 604,
    "pid": 600,
    "name": "麻山区",
    "level": 3,
    "adcode": "230307",
    "lng": "130.481126",
    "lat": "45.209607"
  },
  {
    "id": 605,
    "pid": 600,
    "name": "鸡冠区",
    "level": 3,
    "adcode": "230302",
    "lng": "130.974374",
    "lat": "45.30034"
  },
  {
    "id": 606,
    "pid": 600,
    "name": "恒山区",
    "level": 3,
    "adcode": "230303",
    "lng": "130.910636",
    "lat": "45.213242"
  },
  {
    "id": 607,
    "pid": 600,
    "name": "梨树区",
    "level": 3,
    "adcode": "230305",
    "lng": "130.697781",
    "lat": "45.092195"
  },
  {
    "id": 608,
    "pid": 600,
    "name": "密山市",
    "level": 3,
    "adcode": "230382",
    "lng": "131.874137",
    "lat": "45.54725"
  },
  {
    "id": 609,
    "pid": 600,
    "name": "鸡东县",
    "level": 3,
    "adcode": "230321",
    "lng": "131.148907",
    "lat": "45.250892"
  },
  {
    "id": 610,
    "pid": 513,
    "name": "双鸭山市",
    "level": 2,
    "adcode": "230500",
    "lng": "131.157304",
    "lat": "46.643442"
  },
  {
    "id": 611,
    "pid": 610,
    "name": "饶河县",
    "level": 3,
    "adcode": "230524",
    "lng": "134.021162",
    "lat": "46.801288"
  },
  {
    "id": 612,
    "pid": 610,
    "name": "四方台区",
    "level": 3,
    "adcode": "230505",
    "lng": "131.333181",
    "lat": "46.594347"
  },
  {
    "id": 613,
    "pid": 610,
    "name": "友谊县",
    "level": 3,
    "adcode": "230522",
    "lng": "131.810622",
    "lat": "46.775159"
  },
  {
    "id": 614,
    "pid": 610,
    "name": "尖山区",
    "level": 3,
    "adcode": "230502",
    "lng": "131.15896",
    "lat": "46.642961"
  },
  {
    "id": 615,
    "pid": 610,
    "name": "集贤县",
    "level": 3,
    "adcode": "230521",
    "lng": "131.13933",
    "lat": "46.72898"
  },
  {
    "id": 616,
    "pid": 610,
    "name": "岭东区",
    "level": 3,
    "adcode": "230503",
    "lng": "131.163675",
    "lat": "46.591076"
  },
  {
    "id": 617,
    "pid": 610,
    "name": "宝山区",
    "level": 3,
    "adcode": "230506",
    "lng": "131.404294",
    "lat": "46.573366"
  },
  {
    "id": 618,
    "pid": 610,
    "name": "宝清县",
    "level": 3,
    "adcode": "230523",
    "lng": "132.206415",
    "lat": "46.328781"
  },
  {
    "id": 619,
    "pid": 513,
    "name": "哈尔滨市",
    "level": 2,
    "adcode": "230100",
    "lng": "126.642464",
    "lat": "45.756967"
  },
  {
    "id": 620,
    "pid": 619,
    "name": "巴彦县",
    "level": 3,
    "adcode": "230126",
    "lng": "127.403602",
    "lat": "46.081889"
  },
  {
    "id": 621,
    "pid": 619,
    "name": "依兰县",
    "level": 3,
    "adcode": "230123",
    "lng": "129.565594",
    "lat": "46.315105"
  },
  {
    "id": 622,
    "pid": 619,
    "name": "通河县",
    "level": 3,
    "adcode": "230128",
    "lng": "128.747786",
    "lat": "45.977618"
  },
  {
    "id": 623,
    "pid": 619,
    "name": "呼兰区",
    "level": 3,
    "adcode": "230111",
    "lng": "126.603302",
    "lat": "45.98423"
  },
  {
    "id": 624,
    "pid": 619,
    "name": "木兰县",
    "level": 3,
    "adcode": "230127",
    "lng": "128.042675",
    "lat": "45.949826"
  },
  {
    "id": 625,
    "pid": 619,
    "name": "方正县",
    "level": 3,
    "adcode": "230124",
    "lng": "128.836131",
    "lat": "45.839536"
  },
  {
    "id": 626,
    "pid": 619,
    "name": "延寿县",
    "level": 3,
    "adcode": "230129",
    "lng": "128.331886",
    "lat": "45.455648"
  },
  {
    "id": 627,
    "pid": 619,
    "name": "宾县",
    "level": 3,
    "adcode": "230125",
    "lng": "127.48594",
    "lat": "45.759369"
  },
  {
    "id": 628,
    "pid": 619,
    "name": "双城区",
    "level": 3,
    "adcode": "230113",
    "lng": "126.308784",
    "lat": "45.377942"
  },
  {
    "id": 629,
    "pid": 619,
    "name": "平房区",
    "level": 3,
    "adcode": "230108",
    "lng": "126.629257",
    "lat": "45.605567"
  },
  {
    "id": 630,
    "pid": 619,
    "name": "尚志市",
    "level": 3,
    "adcode": "230183",
    "lng": "127.968539",
    "lat": "45.214953"
  },
  {
    "id": 631,
    "pid": 619,
    "name": "香坊区",
    "level": 3,
    "adcode": "230110",
    "lng": "126.667049",
    "lat": "45.713067"
  },
  {
    "id": 632,
    "pid": 619,
    "name": "道里区",
    "level": 3,
    "adcode": "230102",
    "lng": "126.612532",
    "lat": "45.762035"
  },
  {
    "id": 633,
    "pid": 619,
    "name": "松北区",
    "level": 3,
    "adcode": "230109",
    "lng": "126.563066",
    "lat": "45.814656"
  },
  {
    "id": 634,
    "pid": 619,
    "name": "五常市",
    "level": 3,
    "adcode": "230184",
    "lng": "127.15759",
    "lat": "44.919418"
  },
  {
    "id": 635,
    "pid": 619,
    "name": "南岗区",
    "level": 3,
    "adcode": "230103",
    "lng": "126.652098",
    "lat": "45.755971"
  },
  {
    "id": 636,
    "pid": 619,
    "name": "道外区",
    "level": 3,
    "adcode": "230104",
    "lng": "126.648838",
    "lat": "45.78454"
  },
  {
    "id": 637,
    "pid": 619,
    "name": "阿城区",
    "level": 3,
    "adcode": "230112",
    "lng": "126.972726",
    "lat": "45.538372"
  },
  {
    "id": 638,
    "pid": 513,
    "name": "黑河市",
    "level": 2,
    "adcode": "231100",
    "lng": "127.499023",
    "lat": "50.249585"
  },
  {
    "id": 639,
    "pid": 638,
    "name": "逊克县",
    "level": 3,
    "adcode": "231123",
    "lng": "128.476152",
    "lat": "49.582974"
  },
  {
    "id": 640,
    "pid": 638,
    "name": "孙吴县",
    "level": 3,
    "adcode": "231124",
    "lng": "127.327315",
    "lat": "49.423941"
  },
  {
    "id": 641,
    "pid": 638,
    "name": "嫩江县",
    "level": 3,
    "adcode": "231121",
    "lng": "125.229904",
    "lat": "49.177461"
  },
  {
    "id": 642,
    "pid": 638,
    "name": "爱辉区",
    "level": 3,
    "adcode": "231102",
    "lng": "127.497639",
    "lat": "50.249027"
  },
  {
    "id": 643,
    "pid": 638,
    "name": "五大连池市",
    "level": 3,
    "adcode": "231182",
    "lng": "126.197694",
    "lat": "48.512688"
  },
  {
    "id": 644,
    "pid": 638,
    "name": "北安市",
    "level": 3,
    "adcode": "231181",
    "lng": "126.508737",
    "lat": "48.245437"
  },
  {
    "id": 645,
    "pid": 513,
    "name": "牡丹江市",
    "level": 2,
    "adcode": "231000",
    "lng": "129.618602",
    "lat": "44.582962"
  },
  {
    "id": 646,
    "pid": 645,
    "name": "东安区",
    "level": 3,
    "adcode": "231002",
    "lng": "129.623292",
    "lat": "44.582399"
  },
  {
    "id": 647,
    "pid": 645,
    "name": "爱民区",
    "level": 3,
    "adcode": "231004",
    "lng": "129.601232",
    "lat": "44.595443"
  },
  {
    "id": 648,
    "pid": 645,
    "name": "绥芬河市",
    "level": 3,
    "adcode": "231081",
    "lng": "131.164856",
    "lat": "44.396864"
  },
  {
    "id": 649,
    "pid": 645,
    "name": "东宁市",
    "level": 3,
    "adcode": "231086",
    "lng": "131.125296",
    "lat": "44.063578"
  },
  {
    "id": 650,
    "pid": 645,
    "name": "宁安市",
    "level": 3,
    "adcode": "231084",
    "lng": "129.470019",
    "lat": "44.346836"
  },
  {
    "id": 651,
    "pid": 645,
    "name": "穆棱市",
    "level": 3,
    "adcode": "231085",
    "lng": "130.527085",
    "lat": "44.91967"
  },
  {
    "id": 652,
    "pid": 645,
    "name": "阳明区",
    "level": 3,
    "adcode": "231003",
    "lng": "129.634645",
    "lat": "44.596328"
  },
  {
    "id": 653,
    "pid": 645,
    "name": "林口县",
    "level": 3,
    "adcode": "231025",
    "lng": "130.268402",
    "lat": "45.286645"
  },
  {
    "id": 654,
    "pid": 645,
    "name": "西安区",
    "level": 3,
    "adcode": "231005",
    "lng": "129.61311",
    "lat": "44.581032"
  },
  {
    "id": 655,
    "pid": 645,
    "name": "海林市",
    "level": 3,
    "adcode": "231083",
    "lng": "129.387902",
    "lat": "44.574149"
  },
  {
    "id": 656,
    "pid": 0,
    "name": "新疆维吾尔自治区",
    "level": 1,
    "adcode": "650000",
    "lng": "87.617733",
    "lat": "43.792818"
  },
  {
    "id": 657,
    "pid": 656,
    "name": "北屯市",
    "level": 2,
    "adcode": "659005",
    "lng": "87.824932",
    "lat": "47.353177"
  },
  {
    "id": 662,
    "pid": 656,
    "name": "双河市",
    "level": 2,
    "adcode": "659007",
    "lng": "82.353656",
    "lat": "44.840524"
  },
  {
    "id": 668,
    "pid": 656,
    "name": "铁门关市",
    "level": 2,
    "adcode": "659006",
    "lng": "85.501218",
    "lat": "41.827251"
  },
  {
    "id": 671,
    "pid": 656,
    "name": "博尔塔拉蒙古自治州",
    "level": 2,
    "adcode": "652700",
    "lng": "82.074778",
    "lat": "44.903258"
  },
  {
    "id": 672,
    "pid": 671,
    "name": "温泉县",
    "level": 3,
    "adcode": "652723",
    "lng": "81.03099",
    "lat": "44.973751"
  },
  {
    "id": 673,
    "pid": 671,
    "name": "阿拉山口市",
    "level": 3,
    "adcode": "652702",
    "lng": "82.569389",
    "lat": "45.16777"
  },
  {
    "id": 674,
    "pid": 671,
    "name": "博乐市",
    "level": 3,
    "adcode": "652701",
    "lng": "82.072237",
    "lat": "44.903087"
  },
  {
    "id": 675,
    "pid": 671,
    "name": "精河县",
    "level": 3,
    "adcode": "652722",
    "lng": "82.892938",
    "lat": "44.605645"
  },
  {
    "id": 676,
    "pid": 656,
    "name": "和田地区",
    "level": 2,
    "adcode": "653200",
    "lng": "79.92533",
    "lat": "37.110687"
  },
  {
    "id": 677,
    "pid": 676,
    "name": "民丰县",
    "level": 3,
    "adcode": "653227",
    "lng": "82.692354",
    "lat": "37.064909"
  },
  {
    "id": 678,
    "pid": 676,
    "name": "于田县",
    "level": 3,
    "adcode": "653226",
    "lng": "81.667845",
    "lat": "36.854628"
  },
  {
    "id": 679,
    "pid": 676,
    "name": "和田市",
    "level": 3,
    "adcode": "653201",
    "lng": "79.927542",
    "lat": "37.108944"
  },
  {
    "id": 680,
    "pid": 676,
    "name": "洛浦县",
    "level": 3,
    "adcode": "653224",
    "lng": "80.184038",
    "lat": "37.074377"
  },
  {
    "id": 681,
    "pid": 676,
    "name": "皮山县",
    "level": 3,
    "adcode": "653223",
    "lng": "78.282301",
    "lat": "37.616332"
  },
  {
    "id": 682,
    "pid": 676,
    "name": "和田县",
    "level": 3,
    "adcode": "653221",
    "lng": "79.81907",
    "lat": "37.120031"
  },
  {
    "id": 683,
    "pid": 676,
    "name": "墨玉县",
    "level": 3,
    "adcode": "653222",
    "lng": "79.736629",
    "lat": "37.271511"
  },
  {
    "id": 684,
    "pid": 676,
    "name": "策勒县",
    "level": 3,
    "adcode": "653225",
    "lng": "80.803572",
    "lat": "37.001672"
  },
  {
    "id": 685,
    "pid": 656,
    "name": "塔城地区",
    "level": 2,
    "adcode": "654200",
    "lng": "82.985732",
    "lat": "46.746301"
  },
  {
    "id": 686,
    "pid": 685,
    "name": "塔城市",
    "level": 3,
    "adcode": "654201",
    "lng": "82.983988",
    "lat": "46.746281"
  },
  {
    "id": 687,
    "pid": 685,
    "name": "托里县",
    "level": 3,
    "adcode": "654224",
    "lng": "83.60469",
    "lat": "45.935863"
  },
  {
    "id": 688,
    "pid": 685,
    "name": "和布克赛尔蒙古自治县",
    "level": 3,
    "adcode": "654226",
    "lng": "85.733551",
    "lat": "46.793001"
  },
  {
    "id": 689,
    "pid": 685,
    "name": "裕民县",
    "level": 3,
    "adcode": "654225",
    "lng": "82.982157",
    "lat": "46.202781"
  },
  {
    "id": 690,
    "pid": 685,
    "name": "额敏县",
    "level": 3,
    "adcode": "654221",
    "lng": "83.622118",
    "lat": "46.522555"
  },
  {
    "id": 691,
    "pid": 685,
    "name": "乌苏市",
    "level": 3,
    "adcode": "654202",
    "lng": "84.677624",
    "lat": "44.430115"
  },
  {
    "id": 692,
    "pid": 685,
    "name": "沙湾县",
    "level": 3,
    "adcode": "654223",
    "lng": "85.622508",
    "lat": "44.329544"
  },
  {
    "id": 693,
    "pid": 656,
    "name": "昆玉市",
    "level": 2,
    "adcode": "659009",
    "lng": "79.287372",
    "lat": "37.207994"
  },
  {
    "id": 705,
    "pid": 656,
    "name": "可克达拉市",
    "level": 2,
    "adcode": "659008",
    "lng": "80.63579",
    "lat": "43.6832"
  },
  {
    "id": 712,
    "pid": 656,
    "name": "石河子市",
    "level": 2,
    "adcode": "659001",
    "lng": "86.041075",
    "lat": "44.305886"
  },
  {
    "id": 721,
    "pid": 656,
    "name": "阿勒泰地区",
    "level": 2,
    "adcode": "654300",
    "lng": "88.13963",
    "lat": "47.848393"
  },
  {
    "id": 722,
    "pid": 721,
    "name": "哈巴河县",
    "level": 3,
    "adcode": "654324",
    "lng": "86.418964",
    "lat": "48.059284"
  },
  {
    "id": 723,
    "pid": 721,
    "name": "吉木乃县",
    "level": 3,
    "adcode": "654326",
    "lng": "85.876064",
    "lat": "47.434633"
  },
  {
    "id": 724,
    "pid": 721,
    "name": "布尔津县",
    "level": 3,
    "adcode": "654321",
    "lng": "86.86186",
    "lat": "47.70453"
  },
  {
    "id": 725,
    "pid": 721,
    "name": "富蕴县",
    "level": 3,
    "adcode": "654322",
    "lng": "89.524993",
    "lat": "46.993106"
  },
  {
    "id": 726,
    "pid": 721,
    "name": "青河县",
    "level": 3,
    "adcode": "654325",
    "lng": "90.381561",
    "lat": "46.672446"
  },
  {
    "id": 727,
    "pid": 721,
    "name": "阿勒泰市",
    "level": 3,
    "adcode": "654301",
    "lng": "88.138743",
    "lat": "47.848911"
  },
  {
    "id": 728,
    "pid": 721,
    "name": "福海县",
    "level": 3,
    "adcode": "654323",
    "lng": "87.494569",
    "lat": "47.113128"
  },
  {
    "id": 729,
    "pid": 656,
    "name": "克拉玛依市",
    "level": 2,
    "adcode": "650200",
    "lng": "84.873946",
    "lat": "45.595886"
  },
  {
    "id": 730,
    "pid": 729,
    "name": "乌尔禾区",
    "level": 3,
    "adcode": "650205",
    "lng": "85.697767",
    "lat": "46.08776"
  },
  {
    "id": 731,
    "pid": 729,
    "name": "克拉玛依区",
    "level": 3,
    "adcode": "650203",
    "lng": "84.868918",
    "lat": "45.600477"
  },
  {
    "id": 732,
    "pid": 729,
    "name": "白碱滩区",
    "level": 3,
    "adcode": "650204",
    "lng": "85.129882",
    "lat": "45.689021"
  },
  {
    "id": 733,
    "pid": 729,
    "name": "独山子区",
    "level": 3,
    "adcode": "650202",
    "lng": "84.882267",
    "lat": "44.327207"
  },
  {
    "id": 734,
    "pid": 656,
    "name": "昌吉回族自治州",
    "level": 2,
    "adcode": "652300",
    "lng": "87.304012",
    "lat": "44.014577"
  },
  {
    "id": 735,
    "pid": 734,
    "name": "奇台县",
    "level": 3,
    "adcode": "652325",
    "lng": "89.591437",
    "lat": "44.021996"
  },
  {
    "id": 736,
    "pid": 734,
    "name": "木垒哈萨克自治县",
    "level": 3,
    "adcode": "652328",
    "lng": "90.282833",
    "lat": "43.832442"
  },
  {
    "id": 737,
    "pid": 734,
    "name": "玛纳斯县",
    "level": 3,
    "adcode": "652324",
    "lng": "86.217687",
    "lat": "44.305625"
  },
  {
    "id": 738,
    "pid": 734,
    "name": "呼图壁县",
    "level": 3,
    "adcode": "652323",
    "lng": "86.888613",
    "lat": "44.189342"
  },
  {
    "id": 739,
    "pid": 734,
    "name": "阜康市",
    "level": 3,
    "adcode": "652302",
    "lng": "87.98384",
    "lat": "44.152153"
  },
  {
    "id": 740,
    "pid": 734,
    "name": "昌吉市",
    "level": 3,
    "adcode": "652301",
    "lng": "87.304112",
    "lat": "44.013183"
  },
  {
    "id": 741,
    "pid": 734,
    "name": "吉木萨尔县",
    "level": 3,
    "adcode": "652327",
    "lng": "89.181288",
    "lat": "43.997162"
  },
  {
    "id": 742,
    "pid": 656,
    "name": "五家渠市",
    "level": 2,
    "adcode": "659004",
    "lng": "87.526884",
    "lat": "44.167401"
  },
  {
    "id": 749,
    "pid": 656,
    "name": "巴音郭楞蒙古自治州",
    "level": 2,
    "adcode": "652800",
    "lng": "86.150969",
    "lat": "41.768552"
  },
  {
    "id": 750,
    "pid": 749,
    "name": "和硕县",
    "level": 3,
    "adcode": "652828",
    "lng": "86.864947",
    "lat": "42.268863"
  },
  {
    "id": 751,
    "pid": 749,
    "name": "和静县",
    "level": 3,
    "adcode": "652827",
    "lng": "86.391067",
    "lat": "42.31716"
  },
  {
    "id": 752,
    "pid": 749,
    "name": "尉犁县",
    "level": 3,
    "adcode": "652823",
    "lng": "86.263412",
    "lat": "41.337428"
  },
  {
    "id": 753,
    "pid": 749,
    "name": "若羌县",
    "level": 3,
    "adcode": "652824",
    "lng": "88.168807",
    "lat": "39.023807"
  },
  {
    "id": 754,
    "pid": 749,
    "name": "博湖县",
    "level": 3,
    "adcode": "652829",
    "lng": "86.631576",
    "lat": "41.980166"
  },
  {
    "id": 755,
    "pid": 749,
    "name": "焉耆回族自治县",
    "level": 3,
    "adcode": "652826",
    "lng": "86.5698",
    "lat": "42.064349"
  },
  {
    "id": 756,
    "pid": 749,
    "name": "且末县",
    "level": 3,
    "adcode": "652825",
    "lng": "85.532629",
    "lat": "38.138562"
  },
  {
    "id": 757,
    "pid": 749,
    "name": "库尔勒市",
    "level": 3,
    "adcode": "652801",
    "lng": "86.145948",
    "lat": "41.763122"
  },
  {
    "id": 758,
    "pid": 749,
    "name": "轮台县",
    "level": 3,
    "adcode": "652822",
    "lng": "84.248542",
    "lat": "41.781266"
  },
  {
    "id": 759,
    "pid": 656,
    "name": "阿拉尔市",
    "level": 2,
    "adcode": "659002",
    "lng": "81.285884",
    "lat": "40.541914"
  },
  {
    "id": 779,
    "pid": 656,
    "name": "图木舒克市",
    "level": 2,
    "adcode": "659003",
    "lng": "79.077978",
    "lat": "39.867316"
  },
  {
    "id": 790,
    "pid": 656,
    "name": "喀什地区",
    "level": 2,
    "adcode": "653100",
    "lng": "75.989138",
    "lat": "39.467664"
  },
  {
    "id": 791,
    "pid": 790,
    "name": "疏勒县",
    "level": 3,
    "adcode": "653122",
    "lng": "76.053653",
    "lat": "39.399461"
  },
  {
    "id": 792,
    "pid": 790,
    "name": "伽师县",
    "level": 3,
    "adcode": "653129",
    "lng": "76.741982",
    "lat": "39.494325"
  },
  {
    "id": 793,
    "pid": 790,
    "name": "麦盖提县",
    "level": 3,
    "adcode": "653127",
    "lng": "77.651538",
    "lat": "38.903384"
  },
  {
    "id": 794,
    "pid": 790,
    "name": "叶城县",
    "level": 3,
    "adcode": "653126",
    "lng": "77.420353",
    "lat": "37.884679"
  },
  {
    "id": 795,
    "pid": 790,
    "name": "塔什库尔干塔吉克自治县",
    "level": 3,
    "adcode": "653131",
    "lng": "75.228068",
    "lat": "37.775437"
  },
  {
    "id": 796,
    "pid": 790,
    "name": "岳普湖县",
    "level": 3,
    "adcode": "653128",
    "lng": "76.7724",
    "lat": "39.235248"
  },
  {
    "id": 797,
    "pid": 790,
    "name": "泽普县",
    "level": 3,
    "adcode": "653124",
    "lng": "77.273593",
    "lat": "38.191217"
  },
  {
    "id": 798,
    "pid": 790,
    "name": "莎车县",
    "level": 3,
    "adcode": "653125",
    "lng": "77.248884",
    "lat": "38.414499"
  },
  {
    "id": 799,
    "pid": 790,
    "name": "巴楚县",
    "level": 3,
    "adcode": "653130",
    "lng": "78.55041",
    "lat": "39.783479"
  },
  {
    "id": 800,
    "pid": 790,
    "name": "英吉沙县",
    "level": 3,
    "adcode": "653123",
    "lng": "76.174292",
    "lat": "38.929839"
  },
  {
    "id": 801,
    "pid": 790,
    "name": "疏附县",
    "level": 3,
    "adcode": "653121",
    "lng": "75.863075",
    "lat": "39.378306"
  },
  {
    "id": 802,
    "pid": 790,
    "name": "喀什市",
    "level": 3,
    "adcode": "653101",
    "lng": "75.98838",
    "lat": "39.467861"
  },
  {
    "id": 803,
    "pid": 656,
    "name": "伊犁哈萨克自治州",
    "level": 2,
    "adcode": "654000",
    "lng": "81.317946",
    "lat": "43.92186"
  },
  {
    "id": 804,
    "pid": 803,
    "name": "奎屯市",
    "level": 3,
    "adcode": "654003",
    "lng": "84.901602",
    "lat": "44.423445"
  },
  {
    "id": 805,
    "pid": 803,
    "name": "尼勒克县",
    "level": 3,
    "adcode": "654028",
    "lng": "82.504119",
    "lat": "43.789737"
  },
  {
    "id": 806,
    "pid": 803,
    "name": "巩留县",
    "level": 3,
    "adcode": "654024",
    "lng": "82.227044",
    "lat": "43.481618"
  },
  {
    "id": 807,
    "pid": 803,
    "name": "伊宁县",
    "level": 3,
    "adcode": "654021",
    "lng": "81.524671",
    "lat": "43.977876"
  },
  {
    "id": 808,
    "pid": 803,
    "name": "特克斯县",
    "level": 3,
    "adcode": "654027",
    "lng": "81.840058",
    "lat": "43.214861"
  },
  {
    "id": 809,
    "pid": 803,
    "name": "新源县",
    "level": 3,
    "adcode": "654025",
    "lng": "83.258493",
    "lat": "43.434249"
  },
  {
    "id": 810,
    "pid": 803,
    "name": "昭苏县",
    "level": 3,
    "adcode": "654026",
    "lng": "81.126029",
    "lat": "43.157765"
  },
  {
    "id": 811,
    "pid": 803,
    "name": "察布查尔锡伯自治县",
    "level": 3,
    "adcode": "654022",
    "lng": "81.150874",
    "lat": "43.838883"
  },
  {
    "id": 812,
    "pid": 803,
    "name": "伊宁市",
    "level": 3,
    "adcode": "654002",
    "lng": "81.316343",
    "lat": "43.922209"
  },
  {
    "id": 813,
    "pid": 803,
    "name": "霍城县",
    "level": 3,
    "adcode": "654023",
    "lng": "80.872508",
    "lat": "44.049912"
  },
  {
    "id": 814,
    "pid": 803,
    "name": "霍尔果斯市",
    "level": 3,
    "adcode": "654004",
    "lng": "80.420759",
    "lat": "44.201669"
  },
  {
    "id": 815,
    "pid": 656,
    "name": "乌鲁木齐市",
    "level": 2,
    "adcode": "650100",
    "lng": "87.617733",
    "lat": "43.792818"
  },
  {
    "id": 816,
    "pid": 815,
    "name": "乌鲁木齐县",
    "level": 3,
    "adcode": "650121",
    "lng": "87.505603",
    "lat": "43.982546"
  },
  {
    "id": 817,
    "pid": 815,
    "name": "达坂城区",
    "level": 3,
    "adcode": "650107",
    "lng": "88.30994",
    "lat": "43.36181"
  },
  {
    "id": 818,
    "pid": 815,
    "name": "天山区",
    "level": 3,
    "adcode": "650102",
    "lng": "87.620116",
    "lat": "43.796428"
  },
  {
    "id": 819,
    "pid": 815,
    "name": "沙依巴克区",
    "level": 3,
    "adcode": "650103",
    "lng": "87.596639",
    "lat": "43.788872"
  },
  {
    "id": 820,
    "pid": 815,
    "name": "头屯河区",
    "level": 3,
    "adcode": "650106",
    "lng": "87.425823",
    "lat": "43.876053"
  },
  {
    "id": 821,
    "pid": 815,
    "name": "新市区",
    "level": 3,
    "adcode": "650104",
    "lng": "87.560653",
    "lat": "43.870882"
  },
  {
    "id": 822,
    "pid": 815,
    "name": "米东区",
    "level": 3,
    "adcode": "650109",
    "lng": "87.691801",
    "lat": "43.960982"
  },
  {
    "id": 823,
    "pid": 815,
    "name": "水磨沟区",
    "level": 3,
    "adcode": "650105",
    "lng": "87.613093",
    "lat": "43.816747"
  },
  {
    "id": 824,
    "pid": 656,
    "name": "阿克苏地区",
    "level": 2,
    "adcode": "652900",
    "lng": "80.265068",
    "lat": "41.170712"
  },
  {
    "id": 825,
    "pid": 824,
    "name": "沙雅县",
    "level": 3,
    "adcode": "652924",
    "lng": "82.78077",
    "lat": "41.226268"
  },
  {
    "id": 826,
    "pid": 824,
    "name": "温宿县",
    "level": 3,
    "adcode": "652922",
    "lng": "80.243273",
    "lat": "41.272995"
  },
  {
    "id": 827,
    "pid": 824,
    "name": "拜城县",
    "level": 3,
    "adcode": "652926",
    "lng": "81.869881",
    "lat": "41.796101"
  },